,opis,dzielnica,no_rooms,cena,flat_area,price,link,data,ulica,lokator_ulica_dzielnica,geo_location,rodzaj,point,latitude,longitude,altitude
0,w sąsiedztwie Rynku Głównego / 2 miejsca p ojowe,: Stare Miasto,4.0,777 000 ,87.2,8911.0,https://www.otodom.pl/oferta/w-sasiedztwie-rynku-glownego-2-miejsca-postojowe-ID3WKZS.html#89e33f6554,2019-03-07 15:26:00.407141,Rynek,"Kraków, : Stare Miasto, Rynek","Rynek Główny, Stare Miasto, Kraków, województwo małopolskie, Polska",dzielnica_ulica,"(50.061516499999996, 19.935947926355013, 0.0)",50.061516499999996,19.935947926355013,0.0
1,Apartament u stóp Wawelu,: Stare Miasto,2.0,745 000 ,52.5,14190.0,https://www.otodom.pl/oferta/apartament-u-stop-wawelu-ID3Wbnu.html#89e33f6554,2019-03-07 15:26:00.407141,Wawelu,"Kraków, : Stare Miasto, Wawelu","Bazylika archikatedralna pw. Świętych Stanisława i Wacława, 1, Zamek Królewski na Wawelu, Stare Miasto, Kraków, województwo małopolskie, 31-001, Polska",dzielnica_ulica,"(50.05465045, 19.935455391368265, 0.0)",50.05465045,19.935455391368265,0.0
5,Kawalerka Kraków Podgórze,: Podgórze,1.0,180 000 ,17.6,10227.0,https://www.otodom.pl/oferta/kawalerka-krakow-podgorze-ID3WXBV.html#89e33f6554,2019-03-07 15:26:00.408144,,"Kraków, : Podgórze, ","Podgórze, Kraków, województwo małopolskie, Polska",dzielnica_ulica,"(50.042609, 20.011697369877197, 0.0)",50.042609,20.011697369877197,0.0
7,Do remontu w niskiej zabudowie + ogródek!,: Stare Dębniki,2.0,286 000 ,35.6,8034.0,https://www.otodom.pl/oferta/do-remontu-w-niskiej-zabudowie-ogrodek-ID3WZOQ.html#89e33f6554,2019-03-07 15:26:00.408144,budowie,"Kraków, : Stare Dębniki, budowie","Cmentarz komunalny w budowie, Dębniki, Kraków, województwo małopolskie, Polska",dzielnica_ulica,"(50.0000448, 19.842410046602595, 0.0)",50.0000448,19.842410046602595,0.0
9,3pok.z dwoma balkonami w zielonej okolicy Czyżyny!,: Czyżyny,3.0,378 752 ,59.18,6400.0,https://www.otodom.pl/oferta/3pok-z-dwoma-balkonami-w-zielonej-okolicy-czyzyny-ID3WZNq.html#89e33f6554,2019-03-07 15:26:00.408144,,"Kraków, : Czyżyny, ","Czyżyny, Kraków, województwo małopolskie, Polska",dzielnica_ulica,"(50.06652355, 20.00884129147333, 0.0)",50.06652355,20.00884129147333,0.0
10,3pok.najbardziej pożądany układ  Łąki Nowohuckie!,: Czyżyny,3.0,352 950 ,54.3,6500.0,https://www.otodom.pl/oferta/3pok-najbardziej-pozadany-uklad-laki-nowohuckie-ID3WZNm.html#89e33f6554,2019-03-07 15:26:00.408144,Nowohucka,"Kraków, : Czyżyny, Nowohucka","Nowohucka, Czyżyny, Kraków, województwo małopolskie, 31-580, Polska",dzielnica_ulica,"(50.0729599, 20.0043805, 0.0)",50.0729599,20.0043805,0.0
17,Mieszkanie Inwestycyjne   Grzegórzki  bez prowizji,: małopolskie,2.0,399 999 ,47.0,8511.0,https://www.otodom.pl/oferta/mieszkanie-inwestycyjne-grzegorzki-bez-prowizji-ID3WZBG.html#89e33f6554,2019-03-07 15:26:00.409147,,"Kraków, : małopolskie, ","Kraków, województwo małopolskie, Polska",dzielnica_ulica,"(50.0469432, 19.997153435836697, 0.0)",50.0469432,19.997153435836697,0.0
23,3 pokoje wysoki standard Ugorek,: Ugorek,3.0,429 700 ,48.7,8823.0,https://www.otodom.pl/oferta/3-pokoje-wysoki-standard-ugorek-ID3WZoQ.html#89e33f6554,2019-03-07 15:26:00.410149,Ugorek,"Kraków, : Ugorek, Ugorek","Ugorek, Prądnik Czerwony, Kraków, województwo małopolskie, 31-457, Polska",dzielnica_ulica,"(50.0761099, 19.9820437, 0.0)",50.0761099,19.9820437,0.0
25,2 oddzielne pokoje ok 49m2 Dębniki kliny,: Kliny-Zacisze,2.0,324 000 ,49.0,6612.0,https://www.otodom.pl/oferta/2-oddzielne-pokoje-ok-49m2-debniki-kliny-ID3WZfK.html#89e33f6554,2019-03-07 15:26:00.410149,,"Kraków, : Kliny-Zacisze, ","Kliny Zacisze, Swoszowice, Kraków, województwo małopolskie, Polska",dzielnica_ulica,"(49.9998275, 19.8972804, 0.0)",49.9998275,19.8972804,0.0
26,Sprzedam 2 apartamenty na Topolowej pod inwestycje,: Stare Miasto,3.0,790 000 ,78.5,10064.0,https://www.otodom.pl/oferta/sprzedam-2-apartamenty-na-topolowej-pod-inwestycje-ID3WZfy.html#89e33f6554,2019-03-07 15:26:00.410149,Topolowa,"Kraków, : Stare Miasto, Topolowa","Topolowa, Wesoła, Stare Miasto, Kraków, województwo małopolskie, 31-508, Polska",dzielnica_ulica,"(50.0672614, 19.9504819, 0.0)",50.0672614,19.9504819,0.0
28,2 pokojowe z Ogródkiem  43m2  Wola Justowska,: Bronowice,2.0,416 000 ,43.0,9674.0,https://www.otodom.pl/oferta/2-pokojowe-z-ogrodkiem-43m2-wola-justowska-ID3WZ5V.html#89e33f6554,2019-03-07 15:26:00.410149,Justowska,"Kraków, : Bronowice, Justowska","Justowska, Osiedle Widok Zarzecze, Bronowice, Kraków, województwo małopolskie, 30-138, Polska",dzielnica_ulica,"(50.0754855, 19.8840381, 0.0)",50.0754855,19.8840381,0.0
29,Pl. Bohaterów Getta  2 pokoje !!!,: Stare Podgórze,2.0,475 000 ,43.3,10970.0,https://www.otodom.pl/oferta/pl-bohaterow-getta-2-pokoje-ID3WZ4s.html#89e33f6554,2019-03-07 15:26:00.410149,Getta,"Kraków, : Stare Podgórze, Getta","Plac Bohaterów Getta, Podgórze, Kraków, województwo małopolskie, Polska",dzielnica_ulica,"(50.0467232, 19.95438111538139, 0.0)",50.0467232,19.95438111538139,0.0
30,Kraków  Śródmieście  Olsza –  ca Idzikowskiego,: Śródmieście,2.0,290 000 ,25.09,11558.0,https://www.otodom.pl/oferta/krakow-srodmiescie-olsza-ulica-idzikowskiego-ID3WZ3G.html#89e33f6554,2019-03-07 15:26:00.411152,,"Kraków, : Śródmieście, ","Śródmieście, Prądnik Czerwony, Kraków, województwo małopolskie, Polska",dzielnica_ulica,"(50.09244545, 19.981457132908645, 0.0)",50.09244545,19.981457132908645,0.0
34,Bezpośrednio   Kawalerka  Strusia 25m2,: Nowa Huta,1.0,228 000 ,25.0,9120.0,https://www.otodom.pl/oferta/bezposrednio-kawalerka-os-strusia-25m2-ID3WYIY.html#3f7ebb237a,2019-03-07 15:26:01.294507,Struga,"Kraków, : Nowa Huta, Struga","Struga, Osiedle Na Skarpie, Nowa Huta, Kraków, województwo małopolskie, Polska",dzielnica_ulica,"(50.0747532, 20.047561079283497, 0.0)",50.0747532,20.047561079283497,0.0
38,3 pokoje 59m2 nowe budownictwo Śródmieście,: Śródmieście,3.0,499 000 ,59.7,8358.0,https://www.otodom.pl/oferta/3-pokoje-59m2-nowe-budownictwo-srodmiescie-ID3WZ2U.html#3f7ebb237a,2019-03-07 15:26:01.295509,,"Kraków, : Śródmieście, ","Śródmieście, Prądnik Czerwony, Kraków, województwo małopolskie, Polska",dzielnica_ulica,"(50.09244545, 19.981457132908645, 0.0)",50.09244545,19.981457132908645,0.0
39,3 pokoje 60m2 nowe budownictwo Śródmieście,: Śródmieście,3.0,515 000 ,60.61,8497.0,https://www.otodom.pl/oferta/3-pokoje-60m2-nowe-budownictwo-srodmiescie-ID3WZ2Q.html#3f7ebb237a,2019-03-07 15:26:01.295509,,"Kraków, : Śródmieście, ","Śródmieście, Prądnik Czerwony, Kraków, województwo małopolskie, Polska",dzielnica_ulica,"(50.09244545, 19.981457132908645, 0.0)",50.09244545,19.981457132908645,0.0
40,2 pokoje inwestycyjnie Centrum,: Śródmieście,2.0,399 000 ,40.04,9965.0,https://www.otodom.pl/oferta/2-pokoje-inwestycyjnie-centrum-ID3WZ2M.html#3f7ebb237a,2019-03-07 15:26:01.295509,,"Kraków, : Śródmieście, ","Śródmieście, Prądnik Czerwony, Kraków, województwo małopolskie, Polska",dzielnica_ulica,"(50.09244545, 19.981457132908645, 0.0)",50.09244545,19.981457132908645,0.0
41,2 pokoje inwestycyjnie Centrum,: Śródmieście,2.0,349 000 ,34.93,9991.0,https://www.otodom.pl/oferta/2-pokoje-inwestycyjnie-centrum-ID3WZ2I.html#3f7ebb237a,2019-03-07 15:26:01.295509,,"Kraków, : Śródmieście, ","Śródmieście, Prądnik Czerwony, Kraków, województwo małopolskie, Polska",dzielnica_ulica,"(50.09244545, 19.981457132908645, 0.0)",50.09244545,19.981457132908645,0.0
42,2 pokoje inwestycyjnie Centrum,: Śródmieście,2.0,349 000 ,33.4,10449.0,https://www.otodom.pl/oferta/2-pokoje-inwestycyjnie-centrum-ID3WZ2E.html#3f7ebb237a,2019-03-07 15:26:01.295509,,"Kraków, : Śródmieście, ","Śródmieście, Prądnik Czerwony, Kraków, województwo małopolskie, Polska",dzielnica_ulica,"(50.09244545, 19.981457132908645, 0.0)",50.09244545,19.981457132908645,0.0
47,2 pokojowe z Ogródkiem  Gotowe VI 2019  Żabiniec,: Żabiniec,2.0,385 000 ,56.5,6814.0,https://www.otodom.pl/oferta/2-pokojowe-z-ogrodkiem-gotowe-vi-2019-zabiniec-ID3WYQ4.html#3f7ebb237a,2019-03-07 15:26:01.295509,Żabiniec,"Kraków, : Żabiniec, Żabiniec","Żabiniec, Osiedle Żabiniec, Prądnik Biały, Kraków, województwo małopolskie, 31-215, Polska",dzielnica_ulica,"(50.0821999, 19.9463442, 0.0)",50.0821999,19.9463442,0.0
49,Mieszkanie 3 pok. na sprzedaż   65m2   Kurdwanów,: Kurdwanów,3.0,449 000 ,65.0,6908.0,https://www.otodom.pl/oferta/mieszkanie-3-pok-na-sprzedaz-65m2-kurdwanow-ID3WYCI.html#3f7ebb237a,2019-03-07 15:26:01.296512,,"Kraków, : Kurdwanów, ","Kurdwanów, Podgórze Duchackie, Kraków, województwo małopolskie, Polska",dzielnica_ulica,"(50.0082445, 19.9550913, 0.0)",50.0082445,19.9550913,0.0
51,Mieszkanie na Krowodrzy 2 pokoje 38m2 inwestycja,: Krowodrza Górka,2.0,259 000 ,38.0,6816.0,https://www.otodom.pl/oferta/mieszkanie-na-krowodrzy-2-pokoje-38m2-inwestycja-ID3WYxm.html#3f7ebb237a,2019-03-07 15:26:01.296512,,"Kraków, : Krowodrza Górka, ","Krowodrza Górka, Krowodrza, Prądnik Biały, Kraków, województwo małopolskie, Polska",dzielnica_ulica,"(50.08843065, 19.930726167631875, 0.0)",50.08843065,19.930726167631875,0.0
57,Kapelanka 6a   high standard   parking place!,: Dębniki,2.0,545 000 ,49.8,10944.0,https://www.otodom.pl/oferta/kapelanka-6a-high-standard-parking-place-ID3WYuc.html#3f7ebb237a,2019-03-07 15:26:01.296512,Kapelanka,"Kraków, : Dębniki, Kapelanka","Kapelanka, Osiedle Podwawelskie, Dębniki, Kraków, województwo małopolskie, 30-346, Polska",dzielnica_ulica,"(50.0434871, 19.9227043, 0.0)",50.0434871,19.9227043,0.0
58,2 pok. gotowe do zamieszkania! Bieńczyce Okazja,: Bieńczyce,2.0,265 000 ,37.0,7162.0,https://www.otodom.pl/oferta/2-pok-gotowe-do-zamieszkania-bienczyce-okazja-ID3WYrC.html#3f7ebb237a,2019-03-07 15:26:01.296512,Bieńczyckie,"Kraków, : Bieńczyce, Bieńczyckie","Planty Bieńczyckie, Bieńczyce, Kraków, województwo małopolskie, 31-845, Polska",dzielnica_ulica,"(50.08937935, 20.011360169078962, 0.0)",50.08937935,20.011360169078962,0.0
59,Prokocim  3 pokoje,: Bieżanów-Prokocim,3.0,315 000 ,51.2,6152.0,https://www.otodom.pl/oferta/prokocim-3-pokoje-ID3WYmU.html#3f7ebb237a,2019-03-07 15:26:01.297515,Prokocimia,"Kraków, : Bieżanów-Prokocim, Prokocimia","Prokocim, Bieżanów-Prokocim, Kraków, województwo małopolskie, Polska",dzielnica_ulica,"(50.0226748, 19.9921741, 0.0)",50.0226748,19.9921741,0.0
65,2 pokoje 37m2  Na Lotnisku.,: Górka Narodowa,2.0,265 000 ,36.35,7290.0,https://www.otodom.pl/oferta/2-pokoje-37m2-os-na-lotnisku-ID3WVza.html#85fbb29208,2019-03-07 15:26:02.253062,Lotnisko,"Kraków, : Górka Narodowa, Lotnisko","Lądowisko Rakowice-Czyżyny, Stefana Jurczaka, Czyżyny, Kraków, województwo małopolskie, 31-634, Polska",dzielnica_ulica,"(50.0846957, 19.9886787, 0.0)",50.0846957,19.9886787,0.0
66,Piękne Mieszkanie Niedawno Wyremontowane Pod Najem,: Nowa Huta,2.0,266 000 ,37.0,7189.0,https://www.otodom.pl/oferta/piekne-mieszkanie-niedawno-wyremontowane-pod-najem-ID3WVk4.html#85fbb29208,2019-03-07 15:26:02.253062,Gajem,"Kraków, : Nowa Huta, Gajem","Pod Gajem, Wróżenice, Nowa Huta, Kraków, województwo małopolskie, 31-999, Polska",dzielnica_ulica,"(50.1138325, 20.189733, 0.0)",50.1138325,20.189733,0.0
69,Apartamet w ścisłym Centrum Krakowa STARE MIASTO,: Stare Miasto,1.0,345 000 ,21.0,16429.0,https://www.otodom.pl/oferta/apartamet-w-scislym-centrum-krakowa-stare-miasto-ID3WYbe.html#85fbb29208,2019-03-07 15:26:02.253062,,"Kraków, : Stare Miasto, ","Stare Miasto, Kraków, województwo małopolskie, Polska",dzielnica_ulica,"(50.0590398, 19.93716829792899, 0.0)",50.0590398,19.93716829792899,0.0
71,Mieszkanie w centrum Krakowa 69m2  3 pokoje,: Grzegórzki,3.0,600 000 ,69.0,8696.0,https://www.otodom.pl/oferta/mieszkanie-w-centrum-krakowa-69m2-3-pokoje-ID3WY68.html#85fbb29208,2019-03-07 15:26:02.254066,Krakowa,"Kraków, : Grzegórzki, Krakowa","Fabryka Emalia Oskara Schindlera, 4, Lipowa, Zabłocie, Podgórze, Kraków, województwo małopolskie, 30-702, Polska",dzielnica_ulica,"(50.047454849999994, 19.961710662081337, 0.0)",50.047454849999994,19.961710662081337,0.0
73,Mieszkanie 3 pokojowe   Kraków  3 5 km od Centrum,: Prądnik Biały,3.0,347 900 ,47.0,7402.0,https://www.otodom.pl/oferta/mieszkanie-3-pokojowe-krakow-3-5-km-od-centrum-ID3WY5V.html#85fbb29208,2019-03-07 15:26:02.254066,,"Kraków, : Prądnik Biały, ","Prądnik Biały, Kraków, województwo małopolskie, Polska",dzielnica_ulica,"(50.1035684, 19.953603106301202, 0.0)",50.1035684,19.953603106301202,0.0
74,Krowodrza 3 pok. mieszkanie w super lokalizacji !,: Krowodrza,3.0,436 000 ,59.0,7390.0,https://www.otodom.pl/oferta/krowodrza-3-pok-mieszkanie-w-super-lokalizacji-ID3WY60.html#85fbb29208,2019-03-07 15:26:02.254066,Krowoderska,"Kraków, : Krowodrza, Krowoderska","Krowoderska, Kleparz, Stare Miasto, Kraków, województwo małopolskie, 32-158, Polska",dzielnica_ulica,"(50.0723986, 19.9317322, 0.0)",50.0723986,19.9317322,0.0
76,Dom w cenie mieszkania! ok.   Łokietka,: małopolskie,3.0,384 960 ,64.0,6015.0,https://www.otodom.pl/oferta/dom-w-cenie-mieszkania-ok-ul-lokietka-ID3WY5K.html#85fbb29208,2019-03-07 15:26:02.254066,Łokietka,"Kraków, : małopolskie, Łokietka","Łokietka, Władysława Łokietka, Azory, Prądnik Biały, Kraków, województwo małopolskie, 31-279, Polska",dzielnica_ulica,"(50.085377, 19.9235123, 0.0)",50.085377,19.9235123,0.0
88,Obozowa  38m2  2 Pokoje  Balkon,: Borek Fałęcki,2.0,299 000 ,38.0,7868.0,https://www.otodom.pl/oferta/obozowa-38m2-2-pokoje-balkon-ID3WXEU.html#85fbb29208,2019-03-07 15:26:02.255068,Obozowa,"Kraków, : Borek Fałęcki, Obozowa","Obozowa, Osiedle Polana Żywiecka, Łagiewniki-Borek Fałęcki, Kraków, województwo małopolskie, 30-427, Polska",dzielnica_ulica,"(50.0119784, 19.9084164, 0.0)",50.0119784,19.9084164,0.0
99,2 pok. mieszkanie 33 mkw  Mistrzejowice,: Mistrzejowice,2.0,234 430 ,33.49,7000.0,https://www.otodom.pl/oferta/2-pok-mieszkanie-33-mkw-mistrzejowice-ID3WXlV.html#d245b9f81f,2019-03-07 15:26:03.120374,Mistrzejowicka,"Kraków, : Mistrzejowice, Mistrzejowicka","Mistrzejowicka, Mistrzejowice, Kraków, województwo małopolskie, 31-638, Polska",dzielnica_ulica,"(50.094553, 20.0276976, 0.0)",50.094553,20.0276976,0.0
104,Dla Inwestora | Kazimierz | ROI 12 % | 135 m2,: Kazimierz,6.0,2 161 440 ,135.09,16000.0,https://www.otodom.pl/oferta/dla-inwestora-kazimierz-roi-12-135-m2-ID3WXfm.html#d245b9f81f,2019-03-07 15:26:03.121377,Kazimierza,"Kraków, : Kazimierz, Kazimierza","Kazimierza Brodzińskiego, Podgórze, Kraków, województwo małopolskie, 30-506, Polska",dzielnica_ulica,"(50.0461323, 19.9487447, 0.0)",50.0461323,19.9487447,0.0
105,Mieszkanie 3 pok. Prokocim  Bieżanów,: Bieżanów-Prokocim,3.0,480 000 ,63.0,7619.0,https://www.otodom.pl/oferta/mieszkanie-3-pok-prokocim-biezanow-ID3WXcM.html#d245b9f81f,2019-03-07 15:26:03.121377,Prokocimia,"Kraków, : Bieżanów-Prokocim, Prokocimia","Prokocim, Bieżanów-Prokocim, Kraków, województwo małopolskie, Polska",dzielnica_ulica,"(50.0226748, 19.9921741, 0.0)",50.0226748,19.9921741,0.0
109,2 pokojowe mieszkanie w sercu Krowodrzy!,: Krowodrza,2.0,480 000 ,49.0,9796.0,https://www.otodom.pl/oferta/2-pokojowe-mieszkanie-w-sercu-krowodrzy-ID3WVNi.html#d245b9f81f,2019-03-07 15:26:03.121377,,"Kraków, : Krowodrza, ","Krowodrza, Kraków, województwo małopolskie, Polska",dzielnica_ulica,"(50.07087985, 19.91656311814478, 0.0)",50.07087985,19.91656311814478,0.0
113,2 pokojowe mieszkanie Wrocławska  Kraków,: Krowodrza,2.0,515 000 ,49.0,10510.0,https://www.otodom.pl/oferta/2-pokojowe-mieszkanie-wroclawska-krakow-ID3WVCM.html#d245b9f81f,2019-03-07 15:26:03.122380,Wrocławska,"Kraków, : Krowodrza, Wrocławska","Wrocławska, Stara Krowodrza, Krowodrza, Kraków, województwo małopolskie, 30-006, Polska",dzielnica_ulica,"(50.0764315, 19.9281731, 0.0)",50.0764315,19.9281731,0.0
114,4 pokoje na Dauna do remontu,: Wola Duchacka,4.0,440 000 ,79.0,5570.0,https://www.otodom.pl/oferta/4-pokoje-na-dauna-do-remontu-ID3WVCI.html#d245b9f81f,2019-03-07 15:26:03.122380,Dauna,"Kraków, : Wola Duchacka, Dauna","Alfreda Dauna, Wola Duchacka, Podgórze Duchackie, Kraków, województwo małopolskie, 30-683, Polska",dzielnica_ulica,"(50.0247267, 19.973152, 0.0)",50.0247267,19.973152,0.0
115,3 pokojowe piękne mieszkanie Podgórze Duchackie,: Kurdwanów,3.0,340 000 ,62.0,5484.0,https://www.otodom.pl/oferta/3-pokojowe-piekne-mieszkanie-podgorze-duchackie-ID3WVCA.html#d245b9f81f,2019-03-07 15:26:03.122380,,"Kraków, : Kurdwanów, ","Kurdwanów, Podgórze Duchackie, Kraków, województwo małopolskie, Polska",dzielnica_ulica,"(50.0082445, 19.9550913, 0.0)",50.0082445,19.9550913,0.0
116,3 pokojowe mieszkanie dla Ciebie Teligi  Bieżanów,: Bieżanów,3.0,349 000 ,51.2,6816.0,https://www.otodom.pl/oferta/3-pokojowe-mieszkanie-dla-ciebie-teligi-biezanow-ID3WVCE.html#d245b9f81f,2019-03-07 15:26:03.122380,Teligi,"Kraków, : Bieżanów, Teligi","Teligi, Nowy Bieżanów, Bieżanów-Prokocim, Kraków, województwo małopolskie, Polska",dzielnica_ulica,"(50.0165281, 20.006306249999977, 0.0)",50.0165281,20.006306249999977,0.0
132,2mieszkania na Kalwaryjskiej w cenie 1,: Stare Podgórze,3.0,640 000 ,75.35,8494.0,https://www.otodom.pl/oferta/2mieszkania-na-kalwaryjskiej-w-cenie-1-ID3WVvI.html#2586a7ec49,2019-03-07 15:26:04.045844,Kalwaryjska,"Kraków, : Stare Podgórze, Kalwaryjska","Kalwaryjska, Podgórze, Kraków, województwo małopolskie, 30-509, Polska",dzielnica_ulica,"(50.0438264, 19.947108, 0.0)",50.0438264,19.947108,0.0
133,Mieszkanie 1 pok   gotowe! Bronowice,: Bronowice Małe,1.0,213 000 ,27.0,7889.0,https://www.otodom.pl/oferta/mieszkanie-1-pok-gotowe-bronowice-ID3WVuU.html#2586a7ec49,2019-03-07 15:26:04.045844,Bronowicka,"Kraków, : Bronowice Małe, Bronowicka","Bronowicka, Bronowice Małe, Bronowice, Kraków, województwo małopolskie, 30-139, Polska",dzielnica_ulica,"(50.0816928, 19.8902943, 0.0)",50.0816928,19.8902943,0.0
137,Okazja!4 pokoje 60 65m2 ok.  Piastowskiej,: małopolskie,4.0,489 000 ,60.65,8063.0,https://www.otodom.pl/oferta/okazja-4-pokoje-60-65m2-ok-ul-piastowskiej-ID3WVpm.html#2586a7ec49,2019-03-07 15:26:04.046845,Piastowska,"Kraków, : małopolskie, Piastowska","Piastowska, Miasteczko Studenckie AGH, Krowodrza, Kraków, województwo małopolskie, 30-067, Polska",dzielnica_ulica,"(50.0682352, 19.9032659, 0.0)",50.0682352,19.9032659,0.0
138,Okazja!4 pokoje 80m2   Fatimska Kraków,: Bieńczyce,4.0,379 000 ,79.7,4755.0,https://www.otodom.pl/oferta/okazja-4-pokoje-80m2-ul-fatimska-krakow-ID3WVo4.html#2586a7ec49,2019-03-07 15:26:04.046845,Fatimska,"Kraków, : Bieńczyce, Fatimska","Fatimska, Bieńczyce, Kraków, województwo małopolskie, 31-831, Polska",dzielnica_ulica,"(50.0876121, 20.0298418, 0.0)",50.0876121,20.0298418,0.0
140,2pok+Balkon przy Parku! Duża Sypialnia  Sprawdź,: małopolskie,2.0,229 000 ,38.0,6026.0,https://www.otodom.pl/oferta/2pok-balkon-przy-parku-duza-sypialnia-sprawdz-ID3WVm8.html#2586a7ec49,2019-03-07 15:26:04.047848,Szpitalna,"Kraków, : małopolskie, Szpitalna","Szpitalna, Stare Miasto, Kraków, województwo małopolskie, 31-156, Polska",dzielnica_ulica,"(50.0647876, 19.942688, 0.0)",50.0647876,19.942688,0.0
141,Kraków   Stare Miasto     Pawlikowskiego   40 m2,: Stare Miasto,2.0,399 000 ,40.0,9975.0,https://www.otodom.pl/oferta/krakow-stare-miasto-ul-pawlikowskiego-40-m2-ID3WVli.html#2586a7ec49,2019-03-07 15:26:04.047848,Starego,"Kraków, : Stare Miasto, Starego","Sarkofag Zygmunta I Starego, 1, Dziedziniec Batorego, Stare Miasto, Kraków, województwo małopolskie, 31-001, Polska",dzielnica_ulica,"(50.0547963, 19.9356012, 0.0)",50.0547963,19.9356012,0.0
146,Okazja  3 pokoje  Żabiniec,: Żabiniec,3.0,419 000 ,59.0,7102.0,https://www.otodom.pl/oferta/okazja-3-pokoje-zabiniec-ID3WV9O.html#2586a7ec49,2019-03-07 15:26:04.048852,Żabiniec,"Kraków, : Żabiniec, Żabiniec","Żabiniec, Osiedle Żabiniec, Prądnik Biały, Kraków, województwo małopolskie, 31-215, Polska",dzielnica_ulica,"(50.0821999, 19.9463442, 0.0)",50.0821999,19.9463442,0.0
160,2pok na Nowym Osiedlu z Pełną Infrastrukturą!,: małopolskie,2.0,208 000 ,34.12,6096.0,https://www.otodom.pl/oferta/2pok-na-nowym-osiedlu-z-pelna-infrastruktura-ID3WV7G.html#d5a755bd0e,2019-03-07 15:26:05.065561,Nowy,"Kraków, : małopolskie, Nowy","Kraków, województwo małopolskie, Polska",dzielnica_ulica,"(50.0469432, 19.997153435836697, 0.0)",50.0469432,19.997153435836697,0.0
166,Zabłocie 3 Pokoje! Wykończone!,: Grzegórzki,3.0,660 000 ,69.91,9441.0,https://www.otodom.pl/oferta/zablocie-3-pokoje-wykonczone-ID3WV48.html#d5a755bd0e,2019-03-07 15:26:05.066563,Zabłocie,"Kraków, : Grzegórzki, Zabłocie","Zabłocie, Podgórze, Kraków, województwo małopolskie, 30-701, Polska",dzielnica_ulica,"(50.04984125, 19.961453990386204, 0.0)",50.04984125,19.961453990386204,0.0
167,Sprzedam dwupokojowe mieszkanie  Bajeczna,: Grzegórzki,2.0,448 000 ,46.0,9739.0,https://www.otodom.pl/oferta/sprzedam-dwupokojowe-mieszkanie-bajeczna-ID3WV1m.html#d5a755bd0e,2019-03-07 15:26:05.066563,Bajeczna,"Kraków, : Grzegórzki, Bajeczna","Bajeczna, Dąbie, Grzegórzki, Kraków, województwo małopolskie, 31-567, Polska",dzielnica_ulica,"(50.0574115, 19.9766744, 0.0)",50.0574115,19.9766744,0.0
170,Kawalerki na Nowym Osiedlu dla Inwestora! Sprawdź!,: małopolskie,1.0,176 000 ,27.0,6519.0,https://www.otodom.pl/oferta/kawalerki-na-nowym-osiedlu-dla-inwestora-sprawdz-ID3WWXy.html#d5a755bd0e,2019-03-07 15:26:05.066563,Nowy,"Kraków, : małopolskie, Nowy","Kraków, województwo małopolskie, Polska",dzielnica_ulica,"(50.0469432, 19.997153435836697, 0.0)",50.0469432,19.997153435836697,0.0
172,Prądnik Czerwony  Strzelców   47m2 0% Prowizji,: Prądnik Czerwony,2.0,319 000 ,47.0,6787.0,https://www.otodom.pl/oferta/pradnik-czerwony-ul-strzelcow-47m2-0-prowizji-ID3WWWa.html#d5a755bd0e,2019-03-07 15:26:05.066563,Czerwona,"Kraków, : Prądnik Czerwony, Czerwona","Czerwona, Olsza II, Prądnik Czerwony, Kraków, województwo małopolskie, 31-424, Polska",dzielnica_ulica,"(50.0849372, 19.9554073, 0.0)",50.0849372,19.9554073,0.0
175,Ok. Wrocławska  deweloperskie  19 01m2  1 pokój !!,: Krowodrza,1.0,190 100 ,19.01,10000.0,https://www.otodom.pl/oferta/ok-wroclawska-deweloperskie-19-01m2-1-pokoj-ID3WWRm.html#d5a755bd0e,2019-03-07 15:26:05.067566,Wrocławska,"Kraków, : Krowodrza, Wrocławska","Wrocławska, Stara Krowodrza, Krowodrza, Kraków, województwo małopolskie, 30-006, Polska",dzielnica_ulica,"(50.0764315, 19.9281731, 0.0)",50.0764315,19.9281731,0.0
177,Kleparz  Ok. Wrocławska 36m2  2pok  II piętro  d,: Krowodrza,2.0,320 000 ,36.04,8879.0,https://www.otodom.pl/oferta/kleparz-ok-wroclawska-36m2-2pok-ii-pietro-d-ID3WWMA.html#d5a755bd0e,2019-03-07 15:26:05.067566,,"Kraków, : Krowodrza, ","Krowodrza, Kraków, województwo małopolskie, Polska",dzielnica_ulica,"(50.07087985, 19.91656311814478, 0.0)",50.07087985,19.91656311814478,0.0
178,Białoprądnicka | Stan deweloperski | 3 pokoje,: Prądnik Biały,3.0,428 000 ,63.0,6794.0,https://www.otodom.pl/oferta/bialopradnicka-stan-deweloperski-3-pokoje-ID3WWIg.html#d5a755bd0e,2019-03-07 15:26:05.067566,Białoprądnicka,"Kraków, : Prądnik Biały, Białoprądnicka","Białoprądnicka, Prądnik Biały, Kraków, województwo małopolskie, 31-233, Polska",dzielnica_ulica,"(50.0966502, 19.9331089, 0.0)",50.0966502,19.9331089,0.0
188,2 Pokoje! Okazja! Inwestycyjnie!,: Czyżyny,2.0,230 000 ,35.5,6479.0,https://www.otodom.pl/oferta/2-pokoje-okazja-inwestycyjnie-ID3WWEM.html#0c43dd2d44,2019-03-07 15:26:05.951924,Pokoju,"Kraków, : Czyżyny, Pokoju","Aleja Pokoju, Czyżyny, Kraków, województwo małopolskie, 31-580, Polska",dzielnica_ulica,"(50.067152, 20.0036961, 0.0)",50.067152,20.0036961,0.0
194,3 pokojowe na Krakowskim Kazimierzu,: Kazimierz,3.0,990 000 ,78.78,12567.0,https://www.otodom.pl/oferta/3-pokojowe-na-krakowskim-kazimierzu-ID3WWmg.html#0c43dd2d44,2019-03-07 15:26:05.952927,Krakowskich,"Kraków, : Kazimierz, Krakowskich","Kwatera powstańców krakowskich z 1846 roku, Aleja Powstańców Śląskich, Podgórze, Kraków, województwo małopolskie, 30-546, Polska",dzielnica_ulica,"(50.042218, 19.959666, 0.0)",50.042218,19.959666,0.0
195,3 pokojowe o fajnym układzie    Komuny Paryskiej,: Kliny-Zacisze,3.0,480 000 ,60.43,7943.0,https://www.otodom.pl/oferta/3-pokojowe-o-fajnym-ukladzie-ul-komuny-paryskiej-ID3WWlV.html#0c43dd2d44,2019-03-07 15:26:05.952927,Paryskiej,"Kraków, : Kliny-Zacisze, Paryskiej","Komuny Paryskiej, Kobierzyn, Swoszowice, Kraków, województwo małopolskie, 30-389, Polska",dzielnica_ulica,"(49.9989124, 19.8947491, 0.0)",49.9989124,19.8947491,0.0
205,Krowodrza   kawalerka   w pięknej kamienicy,: Krowodrza,1.0,289 000 ,22.16,13042.0,https://www.otodom.pl/oferta/krowodrza-kawalerka-w-pieknej-kamienicy-ID3T6KU.html#4b28cb7416,2019-03-07 15:26:07.035813,Krowoderska,"Kraków, : Krowodrza, Krowoderska","Krowoderska, Kleparz, Stare Miasto, Kraków, województwo małopolskie, 32-158, Polska",dzielnica_ulica,"(50.0723986, 19.9317322, 0.0)",50.0723986,19.9317322,0.0
206,Ekskluzywne mieszkanie przy Aleji Kijowskiej 59m2,: Krowodrza,3.0,580 000 ,58.8,9864.0,https://www.otodom.pl/oferta/ekskluzywne-mieszkanie-przy-aleji-kijowskiej-59m2-ID3W6zm.html#4b28cb7416,2019-03-07 15:26:07.035813,Kijowska,"Kraków, : Krowodrza, Kijowska","Aleja Kijowska, Łobzów, Krowodrza, Kraków, województwo małopolskie, 30-831, Polska",dzielnica_ulica,"(50.0729803, 19.9155593, 0.0)",50.0729803,19.9155593,0.0
207,2 pokoje z Tarasem na Zabłociu,: Zabłocie,2.0,439 000 ,42.0,10452.0,https://www.otodom.pl/oferta/2-pokoje-z-tarasem-na-zablociu-ID3UtjO.html#4b28cb7416,2019-03-07 15:26:07.035813,,"Kraków, : Zabłocie, ","Zabłocie, Podgórze, Kraków, województwo małopolskie, 30-705, Polska",dzielnica_ulica,"(50.0510909, 19.9735024, 0.0)",50.0510909,19.9735024,0.0
208,Apartamenty Dworska  Gotowe mieszkanie! Promocja!,: małopolskie,3.0,515 510 ,65.6,7858.0,https://www.otodom.pl/oferta/apartamenty-dworska-gotowe-mieszkanie-promocja-ID3B82A.html#4b28cb7416,2019-03-07 15:26:07.035813,Dworna,"Kraków, : małopolskie, Dworna","Dworna, Bielany, Zwierzyniec, Kraków, województwo małopolskie, 30-244, Polska",dzielnica_ulica,"(50.0428647, 19.822698, 0.0)",50.0428647,19.822698,0.0
222,Mieszkanie 28.6 m2  Cichy Kącik  AGH  Błonia,: Cichy Kącik,1.0,275 000 ,28.6,9615.0,https://www.otodom.pl/oferta/mieszkanie-28-6-m2-cichy-kacik-agh-blonia-ID3QWqk.html#4b28cb7416,2019-03-07 15:26:07.037819,Cicha,"Kraków, : Cichy Kącik, Cicha","Cicha, Bronowice, Kraków, województwo małopolskie, 30-129, Polska",dzielnica_ulica,"(50.0741518, 19.899188, 0.0)",50.0741518,19.899188,0.0
228,Nowoczesny apartament na Kochanowskiego,: Stare Miasto,4.0,850 000 ,96.18,8838.0,https://www.otodom.pl/oferta/nowoczesny-apartament-na-kochanowskiego-ID3UAaA.html#4b28cb7416,2019-03-07 15:26:07.038821,Krzyżanowskiego,"Kraków, : Stare Miasto, Krzyżanowskiego","Adama Krzyżanowskiego, Łysa Góra, Swoszowice, Kraków, województwo małopolskie, 30-434, Polska",dzielnica_ulica,"(49.9851525, 19.9352456, 0.0)",49.9851525,19.9352456,0.0
232,Trzypokojowe z 2 balkonami   Bronowice.,: Bronowice,2.0,478 000 ,54.88,8710.0,https://www.otodom.pl/oferta/trzypokojowe-z-2-balkonami-bronowice-ID3UT5u.html#4b28cb7416,2019-03-07 15:26:07.039824,Bronowicka,"Kraków, : Bronowice, Bronowicka","Bronowicka, Bronowice, Kraków, województwo małopolskie, 30-091, Polska",dzielnica_ulica,"(50.079245, 19.8970729, 0.0)",50.079245,19.8970729,0.0
233,GOTOWE 4 pok mieszkanie z ogrodem. SUPER CENA !,: małopolskie,4.0,369 000 ,80.0,4613.0,https://www.otodom.pl/oferta/gotowe-4-pok-mieszkanie-z-ogrodem-super-cena-ID3WdR2.html#4b28cb7416,2019-03-07 15:26:08.098647,Ogrodem,"Kraków, : małopolskie, Ogrodem","Za Ogrodem, Wadów, Wzgórza Krzesławickie, Kraków, województwo małopolskie, 31-990, Polska",dzielnica_ulica,"(50.0986422, 20.1175645, 0.0)",50.0986422,20.1175645,0.0
244,Starowiślna  studio  pod najem krótkoterminowy,: Stare Miasto,1.0,408 000 ,28.42,14356.0,https://www.otodom.pl/oferta/starowislna-studio-pod-najem-krotkoterminowy-ID3V3aA.html#89e33f6554,2019-03-08 11:46:14.298839,Starowiślna,"Kraków, : Stare Miasto, Starowiślna","Starowiślna, Kazimierz, Stare Miasto, Kraków, województwo małopolskie, 31-038, Polska",dzielnica_ulica,"(50.0560672, 19.9457877, 0.0)",50.0560672,19.9457877,0.0
248,2 Pokoje  Dąbie Super Komunikacja!,: Grzegórzki,2.0,386 000 ,38.61,9997.0,https://www.otodom.pl/oferta/2-pokoje-dabie-super-komunikacja-ID3V36o.html#89e33f6554,2019-03-08 11:46:14.298839,Pokoju,"Kraków, : Grzegórzki, Pokoju","Aleja Pokoju, Dąbie, Grzegórzki, Kraków, województwo małopolskie, 31-564, Polska",dzielnica_ulica,"(50.0620982, 19.9822147, 0.0)",50.0620982,19.9822147,0.0
252,Kawalerka 25 m2 Osiedle Strusia,: Bieńczyce,2.0,229 000 ,25.0,9160.0,https://www.otodom.pl/oferta/kawalerka-25-m2-osiedle-strusia-ID3V32o.html#89e33f6554,2019-03-08 11:46:14.298839,Osiedle,"Kraków, : Bieńczyce, Osiedle","Bieńczyce, Kraków, województwo małopolskie, 31-831, Polska",dzielnica_ulica,"(50.0866667, 20.0319444, 0.0)",50.0866667,20.0319444,0.0
256,Okazja!3 pokoje  R. Matecznego  Bez PCC i prowizji,: Podgórze,3.0,359 000 ,45.0,7978.0,https://www.otodom.pl/oferta/okazja-3-pokoje-r-matecznego-bez-pcc-i-prowizji-ID3V316.html#89e33f6554,2019-03-08 11:46:14.298839,Matecznego,"Kraków, : Podgórze, Matecznego","Rondo Antoniego Matecznego, Mateczny, Podgórze, Kraków, województwo małopolskie, 30-524, Polska",dzielnica_ulica,"(50.0367797, 19.9405272, 0.0)",50.0367797,19.9405272,0.0
257,Mieszkanie Bieżanów,: Bieżanów,1.0,234 000 ,36.0,6500.0,https://www.otodom.pl/oferta/mieszkanie-biezanow-ID3V2ZG.html#89e33f6554,2019-03-08 11:46:14.298839,,"Kraków, : Bieżanów, ","Bieżanów, Bieżanów-Prokocim, Kraków, województwo małopolskie, Polska",dzielnica_ulica,"(50.0160061, 20.0372002, 0.0)",50.0160061,20.0372002,0.0
260,3 pokoje Kraków Mistrzejowice,: Mistrzejowice,3.0,439 000 ,56.4,7784.0,https://www.otodom.pl/oferta/3-pokoje-krakow-mistrzejowice-ID3V2hq.html#89e33f6554,2019-03-08 11:46:14.298839,Mistrzejowicka,"Kraków, : Mistrzejowice, Mistrzejowicka","Mistrzejowicka, Mistrzejowice, Kraków, województwo małopolskie, 31-638, Polska",dzielnica_ulica,"(50.094553, 20.0276976, 0.0)",50.094553,20.0276976,0.0
264,3 pok.|  Poznańska/ Krowodrza | Wysoki standard,: Krowodrza,3.0,620 000 ,56.0,11071.0,https://www.otodom.pl/oferta/3-pok-ul-poznanska-krowodrza-wysoki-standard-ID3V02Y.html#3f7ebb237a,2019-03-08 11:46:15.196273,Poznańska,"Kraków, : Krowodrza, Poznańska","Poznańska, Stara Krowodrza, Krowodrza, Kraków, województwo małopolskie, 30-011, Polska",dzielnica_ulica,"(50.0778637, 19.9248844, 0.0)",50.0778637,19.9248844,0.0
266,2 Pokojowe Mieszkanie Ul. Pilotów / Olsza,: Prądnik Czerwony,2.0,315 000 ,32.19,9786.0,https://www.otodom.pl/oferta/2-pokojowe-mieszkanie-ul-pilotow-olsza-ID3V2fa.html#3f7ebb237a,2019-03-08 11:46:15.196273,Pilotów,"Kraków, : Prądnik Czerwony, Pilotów","Pilotów, Olsza II, Prądnik Czerwony, Kraków, województwo małopolskie, 31-465, Polska",dzielnica_ulica,"(50.0810336, 19.973773, 0.0)",50.0810336,19.973773,0.0
274,3 pokojowe mieszkanie na Os. Strusia   okazja,: Nowa Huta,3.0,329 000 ,46.0,7152.0,https://www.otodom.pl/oferta/3-pokojowe-mieszkanie-na-os-strusia-okazja-ID3V1Yc.html#3f7ebb237a,2019-03-08 11:46:15.196273,Struga,"Kraków, : Nowa Huta, Struga","Struga, Osiedle Na Skarpie, Nowa Huta, Kraków, województwo małopolskie, Polska",dzielnica_ulica,"(50.0747532, 20.047561079283497, 0.0)",50.0747532,20.047561079283497,0.0
276,Mieszkanie 2 pokojowe na  edlu Dąbie,: Dąbie,2.0,335 000 ,45.0,7444.0,https://www.otodom.pl/oferta/mieszkanie-2-pokojowe-na-osiedlu-dabie-ID3V1Y8.html#3f7ebb237a,2019-03-08 11:46:15.196273,,"Kraków, : Dąbie, ","Dąbie, Grzegórzki, Kraków, województwo małopolskie, 31-560, Polska",dzielnica_ulica,"(50.0594368, 19.9791419, 0.0)",50.0594368,19.9791419,0.0
280,3 niezależne pokoje   Ruczaj   Jahody,: Ruczaj,3.0,420 000 ,60.0,7000.0,https://www.otodom.pl/oferta/3-niezalezne-pokoje-ruczaj-jahody-ID3V1TK.html#3f7ebb237a,2019-03-08 11:46:15.196273,Ruczaj,"Kraków, : Ruczaj, Ruczaj","Ruczaj, Osiedle Ruczaj-Zaborze, Dębniki, Kraków, województwo małopolskie, 30-409, Polska",dzielnica_ulica,"(50.0259495, 19.9198508, 0.0)",50.0259495,19.9198508,0.0
283,Dwupoziomowe mieszkanie  Ruczaj Kraków,: małopolskie,3.0,370 000 ,60.0,6167.0,https://www.otodom.pl/oferta/dwupoziomowe-mieszkanie-ruczaj-krakow-ID3V1Fe.html#3f7ebb237a,2019-03-08 11:46:15.196273,Ruczaj,"Kraków, : małopolskie, Ruczaj","Ruczaj, Osiedle Ruczaj-Zaborze, Dębniki, Kraków, województwo małopolskie, 30-409, Polska",dzielnica_ulica,"(50.0259495, 19.9198508, 0.0)",50.0259495,19.9198508,0.0
284,Inwestycyjne mieszkania przy Dworcu Głównym i GK,: Stare Miasto,1.0,315 000 ,26.7,11798.0,https://www.otodom.pl/oferta/inwestycyjne-mieszkania-przy-dworcu-glownym-i-gk-ID3V1Dy.html#3f7ebb237a,2019-03-08 11:46:15.196273,Dworzec,"Kraków, : Stare Miasto, Dworzec","Dworzec Główny Zachód, Kleparz, Stare Miasto, Kraków, województwo małopolskie, Polska",dzielnica_ulica,"(50.0678026, 19.945064014018463, 0.0)",50.0678026,19.945064014018463,0.0
287,Inwestycyjne mieszkania przy Dworcu Głównym i GK,: Stare Miasto,2.0,467 000 ,30.91,15108.0,https://www.otodom.pl/oferta/inwestycyjne-mieszkania-przy-dworcu-glownym-i-gk-ID3V1Av.html#3f7ebb237a,2019-03-08 11:46:15.196273,Dworzec,"Kraków, : Stare Miasto, Dworzec","Dworzec Główny Zachód, Kleparz, Stare Miasto, Kraków, województwo małopolskie, Polska",dzielnica_ulica,"(50.0678026, 19.945064014018463, 0.0)",50.0678026,19.945064014018463,0.0
298,kawalerka dla Ciebie! Ruczaj Obozowa.,: Ruczaj,1.0,299 000 ,38.0,7868.0,https://www.otodom.pl/oferta/kawalerka-dla-ciebie-ruczaj-obozowa-ID3V1xa.html#85fbb29208,2019-03-08 11:46:15.883863,Ruczaj,"Kraków, : Ruczaj, Ruczaj","Ruczaj, Osiedle Ruczaj-Zaborze, Dębniki, Kraków, województwo małopolskie, 30-409, Polska",dzielnica_ulica,"(50.0259495, 19.9198508, 0.0)",50.0259495,19.9198508,0.0
299,3 pokojowe mieszkanie  Hutnicze Nowa Huta,: Nowa Huta,3.0,315 000 ,38.0,8289.0,https://www.otodom.pl/oferta/3-pokojowe-mieszkanie-os-hutnicze-nowa-huta-ID3V1xe.html#85fbb29208,2019-03-08 11:46:15.883863,Hutnicze,"Kraków, : Nowa Huta, Hutnicze","Osiedle Hutnicze, Osiedle Na Skarpie, Nowa Huta, Kraków, województwo małopolskie, Polska",dzielnica_ulica,"(50.0727517, 20.0454692, 0.0)",50.0727517,20.0454692,0.0
303,2 pok.mieszkanie /panorama Krakowa z okien / 2016r,: Zabłocie,2.0,427 500 ,40.28,10613.0,https://www.otodom.pl/oferta/2-pok-mieszkanie-panorama-krakowa-z-okien-2016r-ID3V1ti.html#85fbb29208,2019-03-08 11:46:15.883863,Krakowa,"Kraków, : Zabłocie, Krakowa","Fabryka Emalia Oskara Schindlera, 4, Lipowa, Zabłocie, Podgórze, Kraków, województwo małopolskie, 30-702, Polska",dzielnica_ulica,"(50.047454849999994, 19.961710662081337, 0.0)",50.047454849999994,19.961710662081337,0.0
304,1 pokojowe  28 5m2  Kazimierz    Miodowa,: Kazimierz,1.0,380 000 ,28.5,13333.0,https://www.otodom.pl/oferta/1-pokojowe-28-5m2-kazimierz-ul-miodowa-ID3V1tm.html#85fbb29208,2019-03-08 11:46:15.883863,Kazimierza,"Kraków, : Kazimierz, Kazimierza","Kazimierza Brodzińskiego, Podgórze, Kraków, województwo małopolskie, 30-506, Polska",dzielnica_ulica,"(50.0461323, 19.9487447, 0.0)",50.0461323,19.9487447,0.0
305,ok. Wielopole   Kamienica po Remoncie !!,: Stare Miasto,2.0,412 000 ,44.5,9258.0,https://www.otodom.pl/oferta/ok-wielopole-kamienica-po-remoncie-ID3V1re.html#85fbb29208,2019-03-08 11:46:15.883863,Wielopole,"Kraków, : Stare Miasto, Wielopole","Wielopole, Wesoła, Stare Miasto, Kraków, województwo małopolskie, 30-020, Polska",dzielnica_ulica,"(50.0586425, 19.9479114, 0.0)",50.0586425,19.9479114,0.0
306,Na Zakolu Wisły   z widokiem na Wisłę,: małopolskie,2.0,428 000 ,41.0,10439.0,https://www.otodom.pl/oferta/na-zakolu-wisly-z-widokiem-na-wisle-ID3V1qE.html#85fbb29208,2019-03-08 11:46:15.883863,Zakole,"Kraków, : małopolskie, Zakole","Zakole, Kantorowice, Wzgórza Krzesławickie, Kraków, województwo małopolskie, 31-762, Polska",dzielnica_ulica,"(50.1109452, 20.057151, 0.0)",50.1109452,20.057151,0.0
307,Superluksusowy apartament w Pałacu Dunajewskiego!,: Stare Miasto,3.0,1 550 000 ,100.0,15500.0,https://www.otodom.pl/oferta/superluksusowy-apartament-w-palacu-dunajewskiego-ID3V1pS.html#85fbb29208,2019-03-08 11:46:15.883863,Dunajewskiego,"Kraków, : Stare Miasto, Dunajewskiego","Juliana Dunajewskiego, Piasek, Stare Miasto, Kraków, województwo małopolskie, 31-133, Polska",dzielnica_ulica,"(50.0646658, 19.9343599, 0.0)",50.0646658,19.9343599,0.0
309,Bronowice   apartament 2 pokojowy 2balkony,: Bronowice,2.0,482 000 ,48.5,9938.0,https://www.otodom.pl/oferta/bronowice-apartament-2-pokojowy-2balkony-ID3V16Q.html#85fbb29208,2019-03-08 11:46:15.883863,Bronowicka,"Kraków, : Bronowice, Bronowicka","Bronowicka, Bronowice, Kraków, województwo małopolskie, 30-091, Polska",dzielnica_ulica,"(50.079245, 19.8970729, 0.0)",50.079245,19.8970729,0.0
315,Mieszkanie dwupokojowe przy  Wielkotyrnowskiej,: Azory,2.0,305 000 ,43.0,7093.0,https://www.otodom.pl/oferta/mieszkanie-dwupokojowe-przy-ul-wielkotyrnowskiej-ID3V0Xm.html#85fbb29208,2019-03-08 11:46:15.883863,Wielkotyrnowska,"Kraków, : Azory, Wielkotyrnowska","Wielkotyrnowska, Osiedle Azory, Prądnik Biały, Kraków, województwo małopolskie, 31-326, Polska",dzielnica_ulica,"(50.0879992, 19.9148834, 0.0)",50.0879992,19.9148834,0.0
316,Apartamenty Przybyszewskiego64|2pok. + garaż|Nowe,: Bronowice Małe,2.0,550 000 ,38.0,14474.0,https://www.otodom.pl/oferta/apartamenty-przybyszewskiego64-2pok-garaz-nowe-ID3V0UY.html#85fbb29208,2019-03-08 11:46:15.883863,Przybyszewskiego,"Kraków, : Bronowice Małe, Przybyszewskiego","Przybyszewskiego, Krowodrza, Kraków, województwo małopolskie, Polska",dzielnica_ulica,"(50.0710654, 19.897767160391375, 0.0)",50.0710654,19.897767160391375,0.0
324,4 pokojowe mieszkanie Bociana   Prądnik Biały 2016,: Prądnik Biały,4.0,525 000 ,73.0,7192.0,https://www.otodom.pl/oferta/4-pokojowe-mieszkanie-bociana-pradnik-bialy-2016-ID3V0SM.html#d245b9f81f,2019-03-08 11:46:16.678588,Bociana,"Kraków, : Prądnik Biały, Bociana","Bociana, Prądnik Biały, Kraków, województwo małopolskie, 31-231, Polska",dzielnica_ulica,"(50.0952304, 19.9532949, 0.0)",50.0952304,19.9532949,0.0
329,Mieszkanie Na Kameralnym Osiedlu spokojna okolica!,: Opatkowice,5.0,479 000 ,96.72,4952.0,https://www.otodom.pl/oferta/mieszkanie-na-kameralnym-osiedlu-spokojna-okolica-ID3V0I0.html#d245b9f81f,2019-03-08 11:46:16.678588,Osiedle,"Kraków, : Opatkowice, Osiedle","Łagiewniki-Borek Fałęcki, Kraków, województwo małopolskie, 30-418, Polska",dzielnica_ulica,"(50.0199633, 19.9294446, 0.0)",50.0199633,19.9294446,0.0
330,Mieszkanie Na Kameralnym Osiedlu spokojna okolica!,: Opatkowice,7.0,519 000 ,100.0,5190.0,https://www.otodom.pl/oferta/mieszkanie-na-kameralnym-osiedlu-spokojna-okolica-ID3V0I4.html#d245b9f81f,2019-03-08 11:46:16.678588,Osiedle,"Kraków, : Opatkowice, Osiedle","Łagiewniki-Borek Fałęcki, Kraków, województwo małopolskie, 30-418, Polska",dzielnica_ulica,"(50.0199633, 19.9294446, 0.0)",50.0199633,19.9294446,0.0
331,Dwupoziomowe w szeregowcu 109m2  Gotowe  Skotniki,: Skotniki,4.0,522 000 ,109.0,4789.0,https://www.otodom.pl/oferta/dwupoziomowe-w-szeregowcu-109m2-gotowe-skotniki-ID3V0Hi.html#d245b9f81f,2019-03-08 11:46:16.678588,Skotnicka,"Kraków, : Skotniki, Skotnicka","Skotnicka, Skotniki, Dębniki, Kraków, województwo małopolskie, 30-396, Polska",dzielnica_ulica,"(50.0064103, 19.8734101, 0.0)",50.0064103,19.8734101,0.0
332,Nowe 2pokoje 38 4m2   Ojcowska,: Bronowice Wielkie,2.0,255 360 ,38.4,6650.0,https://www.otodom.pl/oferta/nowe-2pokoje-38-4m2-ul-ojcowska-ID3V0He.html#d245b9f81f,2019-03-08 11:46:16.678588,Ojcowska,"Kraków, : Bronowice Wielkie, Ojcowska","Ojcowska, Bronowice Wielkie, Prądnik Biały, Kraków, województwo małopolskie, 31-347, Polska",dzielnica_ulica,"(50.1069145, 19.8793534, 0.0)",50.1069145,19.8793534,0.0
334,Stary Bieżanów / kawalerka   stan deweloperski,: Bieżanów-Prokocim,1.0,165 000 ,25.0,6600.0,https://www.otodom.pl/oferta/stary-biezanow-kawalerka-stan-deweloperski-ID3V0Eo.html#d245b9f81f,2019-03-08 11:46:16.678588,,"Kraków, : Bieżanów-Prokocim, ","Bieżanów-Prokocim, Kraków, województwo małopolskie, Polska",dzielnica_ulica,"(50.01706235, 20.022991856015395, 0.0)",50.01706235,20.022991856015395,0.0
337,3pokoje 75m2 360000 Śródmiescie Dobrego Pasterza,: Prądnik Czerwony,3.0,360 000 ,74.8,4813.0,https://www.otodom.pl/oferta/3pokoje-75m2-360000zl-srodmiescie-dobrego-pasterza-ID3V0z2.html#d245b9f81f,2019-03-08 11:46:16.678588,,"Kraków, : Prądnik Czerwony, ","Prądnik Czerwony, Kraków, województwo małopolskie, Polska",dzielnica_ulica,"(50.085936849999996, 19.96659842106007, 0.0)",50.085936849999996,19.96659842106007,0.0
338,2 pokoje z dużym balkonem   Wola Duchacka / Zabawa,: Wola Duchacka,2.0,355 000 ,45.0,7889.0,https://www.otodom.pl/oferta/2-pokoje-z-duzym-balkonem-wola-duchacka-zabawa-ID3V0vg.html#d245b9f81f,2019-03-08 11:46:16.678588,Duchacka,"Kraków, : Wola Duchacka, Duchacka","Kraków Bonarka, Kładka pieszo-rowerowa, Wola Duchacka, Podgórze Duchackie, Kraków, województwo małopolskie, 30-416, Polska",dzielnica_ulica,"(50.0293189, 19.9462275, 0.0)",50.0293189,19.9462275,0.0
341,Mieszkanie z pięknym widokiem   Dębniki!,: Dębniki,2.0,590 000 ,49.8,11847.0,https://www.otodom.pl/oferta/mieszkanie-z-pieknym-widokiem-debniki-ID3V0uM.html#d245b9f81f,2019-03-08 11:46:16.678588,,"Kraków, : Dębniki, ","Dębniki, Kraków, województwo małopolskie, Polska",dzielnica_ulica,"(50.0518611, 19.9270367, 0.0)",50.0518611,19.9270367,0.0
342,Mieszkanie Na Kameralnym Osiedlu spokojna okolica!,: Opatkowice,3.0,319 000 ,54.44,5860.0,https://www.otodom.pl/oferta/mieszkanie-na-kameralnym-osiedlu-spokojna-okolica-ID3V0u8.html#d245b9f81f,2019-03-08 11:46:16.678588,Osiedle,"Kraków, : Opatkowice, Osiedle","Łagiewniki-Borek Fałęcki, Kraków, województwo małopolskie, 30-418, Polska",dzielnica_ulica,"(50.0199633, 19.9294446, 0.0)",50.0199633,19.9294446,0.0
351,Krowodrza   Przyt e 28m2 w wysokim standardzie,: Krowodrza,1.0,329 000 ,28.06,11725.0,https://www.otodom.pl/oferta/krowodrza-przytulne-28m2-w-wysokim-standardzie-ID3V0sg.html#2586a7ec49,2019-03-08 11:46:17.600566,Krowoderska,"Kraków, : Krowodrza, Krowoderska","Krowoderska, Kleparz, Stare Miasto, Kraków, województwo małopolskie, 32-158, Polska",dzielnica_ulica,"(50.0723986, 19.9317322, 0.0)",50.0723986,19.9317322,0.0
352,3 Pokoje Na Bajecznej!!!,: Dąbie,3.0,579 000 ,65.0,8908.0,https://www.otodom.pl/oferta/3-pokoje-na-bajecznej-ID3V0p2.html#2586a7ec49,2019-03-08 11:46:17.600566,Pokoju,"Kraków, : Dąbie, Pokoju","Aleja Pokoju, Dąbie, Grzegórzki, Kraków, województwo małopolskie, 31-564, Polska",dzielnica_ulica,"(50.0620982, 19.9822147, 0.0)",50.0620982,19.9822147,0.0
358,Apartament 30m2 pod krótki najem centrum Krakowa,: Stare Miasto,1.0,429 000 ,29.9,14348.0,https://www.otodom.pl/oferta/apartament-30m2-pod-krotki-najem-centrum-krakowa-ID3V0oA.html#2586a7ec49,2019-03-08 11:46:17.600566,Gajem,"Kraków, : Stare Miasto, Gajem","Pod Gajem, Wróżenice, Nowa Huta, Kraków, województwo małopolskie, 31-999, Polska",dzielnica_ulica,"(50.1138325, 20.189733, 0.0)",50.1138325,20.189733,0.0
362,Duze 4 pok.mieszkanie  Tuchowska nowe budownictw,: Kurdwanów,4.0,538 000 ,76.8,7005.0,https://www.otodom.pl/oferta/duze-4-pok-mieszkanie-ul-tuchowska-nowe-budownictw-ID3V0eQ.html#2586a7ec49,2019-03-08 11:46:17.600566,Tuchowska,"Kraków, : Kurdwanów, Tuchowska","Tuchowska, Podgórze Duchackie, Kraków, województwo małopolskie, 30-618, Polska",dzielnica_ulica,"(50.0083843, 19.9667656, 0.0)",50.0083843,19.9667656,0.0
365,Trzypokojowe mieszkanie na Ruczaju.,: Ruczaj,3.0,400 992 ,56.08,7150.0,https://www.otodom.pl/oferta/trzypokojowe-mieszkanie-na-ruczaju-ID3V02v.html#2586a7ec49,2019-03-08 11:46:17.600566,Ruczaj,"Kraków, : Ruczaj, Ruczaj","Ruczaj, Osiedle Ruczaj-Zaborze, Dębniki, Kraków, województwo małopolskie, 30-409, Polska",dzielnica_ulica,"(50.0259495, 19.9198508, 0.0)",50.0259495,19.9198508,0.0
366,Trzypokojowe mieszkanie na Ruczaju.,: Ruczaj,3.0,420 600 ,56.08,7500.0,https://www.otodom.pl/oferta/trzypokojowe-mieszkanie-na-ruczaju-ID3V02s.html#2586a7ec49,2019-03-08 11:46:17.600566,Ruczaj,"Kraków, : Ruczaj, Ruczaj","Ruczaj, Osiedle Ruczaj-Zaborze, Dębniki, Kraków, województwo małopolskie, 30-409, Polska",dzielnica_ulica,"(50.0259495, 19.9198508, 0.0)",50.0259495,19.9198508,0.0
367,Nowe mieszkania na Ruczaju.,: Ruczaj,1.0,273 711 ,34.84,7856.0,https://www.otodom.pl/oferta/nowe-mieszkania-na-ruczaju-ID3V02o.html#2586a7ec49,2019-03-08 11:46:17.600566,Ruczaj,"Kraków, : Ruczaj, Ruczaj","Ruczaj, Osiedle Ruczaj-Zaborze, Dębniki, Kraków, województwo małopolskie, 30-409, Polska",dzielnica_ulica,"(50.0259495, 19.9198508, 0.0)",50.0259495,19.9198508,0.0
373,3 pok mieszkanie inwestycyjne Wrocławska,: Łobzów,3.0,538 000 ,64.0,8406.0,https://www.otodom.pl/oferta/3-pok-mieszkanie-inwestycyjne-wroclawska-ID3WZUs.html#2586a7ec49,2019-03-08 11:46:17.600566,Wrocławska,"Kraków, : Łobzów, Wrocławska","Wrocławska, Łobzów, Krowodrza, Kraków, województwo małopolskie, 31-306, Polska",dzielnica_ulica,"(50.0816206, 19.9161413, 0.0)",50.0816206,19.9161413,0.0
378,Nowe 2 pokojowe 38 5 m2   Wrocławska,: Łobzów,2.0,350 000 ,38.5,9091.0,https://www.otodom.pl/oferta/nowe-2-pokojowe-38-5-m2-ul-wroclawska-ID3WZUk.html#d5a755bd0e,2019-03-08 11:46:18.354613,Wrocławska,"Kraków, : Łobzów, Wrocławska","Wrocławska, Łobzów, Krowodrza, Kraków, województwo małopolskie, 31-306, Polska",dzielnica_ulica,"(50.0816206, 19.9161413, 0.0)",50.0816206,19.9161413,0.0
419,Stare Miasto Dwupokojowe Komfortowe Garaż Balkon,: Stare Miasto,2.0,840 000 ,63.91,13143.0,https://www.otodom.pl/oferta/stare-miasto-dwupokojowe-komfortowe-garaz-balkon-ID3RScM.html#4b28cb7416,2019-03-08 11:46:20.185359,Starego,"Kraków, : Stare Miasto, Starego","Sarkofag Zygmunta I Starego, 1, Dziedziniec Batorego, Stare Miasto, Kraków, województwo małopolskie, 31-001, Polska",dzielnica_ulica,"(50.0547963, 19.9356012, 0.0)",50.0547963,19.9356012,0.0
421,Apartament na 7 piętrze    Stańczyka,: Bronowice Małe,2.0,449 000 ,55.0,8164.0,https://www.otodom.pl/oferta/apartament-na-7-pietrze-ul-stanczyka-ID3W8Jm.html#4b28cb7416,2019-03-08 11:46:20.185359,Staszczyka,"Kraków, : Bronowice Małe, Staszczyka","Adama Staszczyka, Bronowice, Kraków, województwo małopolskie, 30-124, Polska",dzielnica_ulica,"(50.0757631, 19.9041373, 0.0)",50.0757631,19.9041373,0.0
428,OD WŁAŚCICIELA 50m2  3Pok.  5/8  Zach  Krowodrza,: Krowodrza,3.0,497 500 ,49.9,9970.0,https://www.otodom.pl/oferta/od-wlasciciela-50m2-3pok-5-8-zach-krowodrza-ID3SHdS.html#4b28cb7416,2019-03-08 11:46:20.185359,Krowoderska,"Kraków, : Krowodrza, Krowoderska","Krowoderska, Kleparz, Stare Miasto, Kraków, województwo małopolskie, 32-158, Polska",dzielnica_ulica,"(50.0723986, 19.9317322, 0.0)",50.0723986,19.9317322,0.0
441,PIĘKNE! URZĄDZONE 2 oddzielne pokoje  Bieńczycka,: Czyżyny,2.0,345 000 ,41.42,8329.0,https://www.otodom.pl/oferta/piekne-urzadzone-2-oddzielne-pokoje-ul-bienczycka-ID3ineC.html#4b28cb7416,2019-03-08 11:46:20.185359,Bieńczycka,"Kraków, : Czyżyny, Bieńczycka","Bieńczycka, Nowa Huta, Kraków, województwo małopolskie, 31-860, Polska",dzielnica_ulica,"(50.0745946, 20.0182307, 0.0)",50.0745946,20.0182307,0.0
446, Wrocławska Trzypokojowe  Przepiękne Mieszkanie,: Krowodrza,3.0,497 500 ,49.88,9974.0,https://www.otodom.pl/oferta/ul-wroclawska-trzypokojowe-przepiekne-mieszkanie-ID3WyXO.html#4b28cb7416,2019-03-08 11:46:20.185359,Wrocławska,"Kraków, : Krowodrza, Wrocławska","Wrocławska, Stara Krowodrza, Krowodrza, Kraków, województwo małopolskie, 30-006, Polska",dzielnica_ulica,"(50.0764315, 19.9281731, 0.0)",50.0764315,19.9281731,0.0
449,Domy Szeregowe Tyniecka,: małopolskie,4.0,662 445 ,147.21,4500.0,https://www.otodom.pl/oferta/domy-szeregowe-tyniecka-ID3RTzG.html#4b28cb7416,2019-03-08 11:46:21.091730,Szeregów,"Kraków, : małopolskie, Szeregów","Szarych Szeregów, Kurdwanów, Podgórze Duchackie, Kraków, województwo małopolskie, 30-610, Polska",dzielnica_ulica,"(50.0017702, 19.946798, 0.0)",50.0017702,19.946798,0.0
453,31m2  2 pok.  po remoncie  Bieżanów    Mała Góra,: Bieżanów,2.0,239 900 ,31.17,7697.0,https://www.otodom.pl/oferta/31m2-2-pok-po-remoncie-biezanow-ul-mala-gora-ID3Vb3O.html#24f2434338,2019-03-11 07:59:18.877872,,"Kraków, : Bieżanów, ","Bieżanów, Bieżanów-Prokocim, Kraków, województwo małopolskie, Polska",dzielnica_ulica,"(50.0160061, 20.0372002, 0.0)",50.0160061,20.0372002,0.0
454,Na sprzedaż 53m2  3 pokoje z 2011  Nowy Bieżanów.,: Bieżanów,3.0,340 000 ,52.84,6435.0,https://www.otodom.pl/oferta/na-sprzedaz-53m2-3-pokoje-z-2011-nowy-biezanow-ID3VaKY.html#24f2434338,2019-03-11 07:59:18.877872,,"Kraków, : Bieżanów, ","Bieżanów, Bieżanów-Prokocim, Kraków, województwo małopolskie, Polska",dzielnica_ulica,"(50.0160061, 20.0372002, 0.0)",50.0160061,20.0372002,0.0
462,3 Pok. Mieszkanie W Centrum  Świetna Lokalizacja,: Kleparz,3.0,497 000 ,50.0,9940.0,https://www.otodom.pl/oferta/3-pok-mieszkanie-w-centrum-swietna-lokalizacja-ID3VamI.html#24f2434338,2019-03-11 07:59:18.877872,,"Kraków, : Kleparz, ","Kleparz, Stare Miasto, Kraków, województwo małopolskie, Polska",dzielnica_ulica,"(50.07342815, 19.940296365446876, 0.0)",50.07342815,19.940296365446876,0.0
469,Dwupoziomowy apartament z ogródkiem ok.Tetmajera,: Bronowice Małe,6.0,645 580 ,97.83,6599.0,https://www.otodom.pl/oferta/dwupoziomowy-apartament-z-ogrodkiem-ok-tetmajera-ID3Va8v.html#24f2434338,2019-03-11 07:59:18.877872,Tetmajera,"Kraków, : Bronowice Małe, Tetmajera","Włodzimierza Tetmajera, Bronowice Małe, Bronowice, Kraków, województwo małopolskie, 31-351, Polska",dzielnica_ulica,"(50.0863976, 19.8801099, 0.0)",50.0863976,19.8801099,0.0
474, Avia / Orlińskiego. WYKOŃCZONE 27m2  właściciel,: Czyżyny,1.0,289 000 ,27.0,10704.0,https://www.otodom.pl/oferta/os-avia-orlinskiego-wykonczone-27m2-wlasciciel-ID3V9NC.html#24f2434338,2019-03-11 07:59:18.877872,Orlińskiego,"Kraków, : Czyżyny, Orlińskiego","Osiedle Orlińskiego, Czyżyny, Kraków, województwo małopolskie, Polska",dzielnica_ulica,"(50.08015215, 20.002222674225532, 0.0)",50.08015215,20.002222674225532,0.0
477,strych do adaptacji Stare Miasto,: Stare Miasto,1.0,399 000 ,82.0,4866.0,https://www.otodom.pl/oferta/strych-do-adaptacji-stare-miasto-ID3V9M8.html#24f2434338,2019-03-11 07:59:18.877872,Starego,"Kraków, : Stare Miasto, Starego","Sarkofag Zygmunta I Starego, 1, Dziedziniec Batorego, Stare Miasto, Kraków, województwo małopolskie, 31-001, Polska",dzielnica_ulica,"(50.0547963, 19.9356012, 0.0)",50.0547963,19.9356012,0.0
478,Mieszkanie   Myśliwska wyp żone,: Podgórze,1.0,250 000 ,34.0,7353.0,https://www.otodom.pl/oferta/mieszkanie-ul-mysliwska-wyposazone-ID3V9rS.html#b7c17405d5,2019-03-11 07:59:19.642826,Myśliwska,"Kraków, : Podgórze, Myśliwska","Myśliwska, Płaszów, Podgórze, Kraków, województwo małopolskie, 30-715, Polska",dzielnica_ulica,"(50.0461528, 19.9884956, 0.0)",50.0461528,19.9884956,0.0
479,Mieszkanie 3 pok. 52m2  Wrocławska SUPER LOK.!!!,: Krowodrza,3.0,372 000 ,52.0,7154.0,https://www.otodom.pl/oferta/mieszkanie-3-pok-52m2-ul-wroclawska-super-lok-ID3V8oY.html#b7c17405d5,2019-03-11 07:59:19.642826,Wrocławska,"Kraków, : Krowodrza, Wrocławska","Wrocławska, Stara Krowodrza, Krowodrza, Kraków, województwo małopolskie, 30-006, Polska",dzielnica_ulica,"(50.0764315, 19.9281731, 0.0)",50.0764315,19.9281731,0.0
480,Bronowice   2 poziomowe  piękne  bardzo wysokie !!,: Bronowice,4.0,749 000 ,78.52,9539.0,https://www.otodom.pl/oferta/bronowice-2-poziomowe-piekne-bardzo-wysokie-ID3V7Ny.html#b7c17405d5,2019-03-11 07:59:19.642826,Bronowicka,"Kraków, : Bronowice, Bronowicka","Bronowicka, Bronowice, Kraków, województwo małopolskie, 30-091, Polska",dzielnica_ulica,"(50.079245, 19.8970729, 0.0)",50.079245,19.8970729,0.0
483,Przestronne 3 pokoje Podgórze,: Podgórze,3.0,580 000 ,80.0,7250.0,https://www.otodom.pl/oferta/przestronne-3-pokoje-podgorze-ID3V9wm.html#b7c17405d5,2019-03-11 07:59:19.642826,,"Kraków, : Podgórze, ","Podgórze, Kraków, województwo małopolskie, Polska",dzielnica_ulica,"(50.042609, 20.011697369877197, 0.0)",50.042609,20.011697369877197,0.0
492,Ruczaj. Trzypokojowe  jasna kuchnia  balkon,: Ruczaj,3.0,499 900 ,61.2,8168.0,https://www.otodom.pl/oferta/ruczaj-trzypokojowe-jasna-kuchnia-balkon-ID3V8Ry.html#b7c17405d5,2019-03-11 07:59:19.642826,Ruczaj,"Kraków, : Ruczaj, Ruczaj","Ruczaj, Osiedle Ruczaj-Zaborze, Dębniki, Kraków, województwo małopolskie, 30-409, Polska",dzielnica_ulica,"(50.0259495, 19.9198508, 0.0)",50.0259495,19.9198508,0.0
502,2 pok./ balkon/ 53 50 m2/do wejścia/ Łagiewniki,: Łagiewniki,2.0,352 000 ,53.5,6579.0,https://www.otodom.pl/oferta/2-pok-balkon-53-50-m2-do-wejscia-lagiewniki-ID3V8pG.html#b7c17405d5,2019-03-11 07:59:19.642826,Łagiewnicki,"Kraków, : Łagiewniki, Łagiewnicki","Plac Łagiewnicki, Osiedle Cegielniana, Łagiewniki-Borek Fałęcki, Kraków, województwo małopolskie, 30-407, Polska",dzielnica_ulica,"(50.0285906, 19.9311524, 0.0)",50.0285906,19.9311524,0.0
506,Nowe mieszkanie Czyżyny Orlińskiego,: Czyżyny,1.0,309 000 ,27.0,11444.0,https://www.otodom.pl/oferta/nowe-mieszkanie-czyzyny-orlinskiego-ID3V8jK.html#461619a5cf,2019-03-11 07:59:20.424062,,"Kraków, : Czyżyny, ","Czyżyny, Kraków, województwo małopolskie, Polska",dzielnica_ulica,"(50.06652355, 20.00884129147333, 0.0)",50.06652355,20.00884129147333,0.0
518,Żabiniec  3 pokoje  jasna kuchnia   ustawne,: Krowodrza,3.0,480 000 ,66.0,7273.0,https://www.otodom.pl/oferta/zabiniec-3-pokoje-jasna-kuchnia-ustawne-ID3V7OE.html#461619a5cf,2019-03-11 07:59:20.439691,Żabiniec,"Kraków, : Krowodrza, Żabiniec","Żabiniec, Prądnik Biały, Kraków, województwo małopolskie, 31-200, Polska",dzielnica_ulica,"(50.0851745, 19.9473248, 0.0)",50.0851745,19.9473248,0.0
519,Górka Narodowa dwupoziomowe  stan deweloperski,: Górka Narodowa,5.0,660 000 ,130.0,5077.0,https://www.otodom.pl/oferta/gorka-narodowa-dwupoziomowe-stan-deweloperski-ID3V7OA.html#461619a5cf,2019-03-11 07:59:20.439691,Narodowa,"Kraków, : Górka Narodowa, Narodowa","Górka Narodowa, Witkowice, Prądnik Biały, Kraków, województwo małopolskie, 31-234, Polska",dzielnica_ulica,"(50.1029668, 19.9519549, 0.0)",50.1029668,19.9519549,0.0
522,  Szkolne  trzypokojowe  po remoncie,: małopolskie,3.0,389 900 ,54.0,7220.0,https://www.otodom.pl/oferta/os-szkolne-trzypokojowe-po-remoncie-ID3V7O8.html#461619a5cf,2019-03-11 07:59:20.439691,Szkolne,"Kraków, : małopolskie, Szkolne","Osiedle Szkolne, Osiedle Na Skarpie, Nowa Huta, Kraków, województwo małopolskie, Polska",dzielnica_ulica,"(50.0774958, 20.0482373, 0.0)",50.0774958,20.0482373,0.0
534,Bronowice 2poziomowy apart.w zielonym sercu miasta,: Bronowice,4.0,632 200 ,76.0,8318.0,https://www.otodom.pl/oferta/bronowice-2poziomowy-apart-w-zielonym-sercu-miasta-ID3V7lK.html#948935011d,2019-03-11 07:59:21.189793,Bronowicka,"Kraków, : Bronowice, Bronowicka","Bronowicka, Bronowice, Kraków, województwo małopolskie, 30-091, Polska",dzielnica_ulica,"(50.079245, 19.8970729, 0.0)",50.079245,19.8970729,0.0
540,Umeblowana kawalerka od zaraz B ary Wiślane!,: Dębniki,1.0,379 890 ,28.14,13500.0,https://www.otodom.pl/oferta/umeblowana-kawalerka-od-zaraz-bulwary-wislane-ID3V7l6.html#948935011d,2019-03-11 07:59:21.189793,Szara,"Kraków, : Dębniki, Szara","Szara płyta, Kawerna Zakrzówek, Zakrzówek, Dębniki, Kraków, województwo małopolskie, 30-373, Polska",dzielnica_ulica,"(50.0399269, 19.9148478, 0.0)",50.0399269,19.9148478,0.0
543,PentHouse na Luksusowym Osiedlu przy Wiśle!,: Dębniki,2.0,758 000 ,81.0,9358.0,https://www.otodom.pl/oferta/penthouse-na-luksusowym-osiedlu-przy-wisle-ID3V7kY.html#948935011d,2019-03-11 07:59:21.189793,Osiedle,"Kraków, : Dębniki, Osiedle","Dębniki, Kraków, województwo małopolskie, 30-395, Polska",dzielnica_ulica,"(50.0201677, 19.8769344, 0.0)",50.0201677,19.8769344,0.0
545,Gotowe 2 pokoje z Balkonem  Nowe Osiedle,: Mistrzejowice,2.0,270 000 ,32.0,8438.0,https://www.otodom.pl/oferta/gotowe-2-pokoje-z-balkonem-nowe-osiedle-ID3V7kQ.html#948935011d,2019-03-11 07:59:21.189793,Osiedle,"Kraków, : Mistrzejowice, Osiedle","Mistrzejowice, Kraków, województwo małopolskie, 31-623, Polska",dzielnica_ulica,"(50.0966423, 20.0137673, 0.0)",50.0966423,20.0137673,0.0
546,Kawalerka w pobliżu Centrum Biuro Sprzedaży!Okazja,: małopolskie,1.0,243 000 ,28.0,8679.0,https://www.otodom.pl/oferta/kawalerka-w-poblizu-centrum-biuro-sprzedazy-okazja-ID3V7kM.html#948935011d,2019-03-11 07:59:21.189793,,"Kraków, : małopolskie, ","Kraków, województwo małopolskie, Polska",dzielnica_ulica,"(50.0469432, 19.997153435836697, 0.0)",50.0469432,19.997153435836697,0.0
547,3pok. z prywatnym ogrodem Idealne Dla Rodziny!,: małopolskie,3.0,416 370 ,59.5,6998.0,https://www.otodom.pl/oferta/3pok-z-prywatnym-ogrodem-idealne-dla-rodziny-ID3V7kI.html#948935011d,2019-03-11 07:59:21.189793,Ogrodem,"Kraków, : małopolskie, Ogrodem","Za Ogrodem, Wadów, Wzgórza Krzesławickie, Kraków, województwo małopolskie, 31-990, Polska",dzielnica_ulica,"(50.0986422, 20.1175645, 0.0)",50.0986422,20.1175645,0.0
549,4pokoje w zielonej okolicy  idelane dla rodziny!,: Mistrzejowice,4.0,470 000 ,72.5,6483.0,https://www.otodom.pl/oferta/4pokoje-w-zielonej-okolicy-idelane-dla-rodziny-ID3V7jO.html#948935011d,2019-03-11 07:59:21.189793,Rodziny,"Kraków, : Mistrzejowice, Rodziny","Świętej Rodziny, Osiedle Kalinowe, Bieńczyce, Kraków, województwo małopolskie, 31-812, Polska",dzielnica_ulica,"(50.0904752, 20.0143049, 0.0)",50.0904752,20.0143049,0.0
551,3pokoje w zielonej okolicy  idealne dla rodziny!,: Mistrzejowice,3.0,340 000 ,50.8,6693.0,https://www.otodom.pl/oferta/3pokoje-w-zielonej-okolicy-idealne-dla-rodziny-ID3V7jG.html#948935011d,2019-03-11 07:59:21.189793,Rodziny,"Kraków, : Mistrzejowice, Rodziny","Świętej Rodziny, Osiedle Kalinowe, Bieńczyce, Kraków, województwo małopolskie, 31-812, Polska",dzielnica_ulica,"(50.0904752, 20.0143049, 0.0)",50.0904752,20.0143049,0.0
552,Mistrzejowice 3pok.idealny układ Promocja sprawdź!,: Mistrzejowice,3.0,324 900 ,47.09,6900.0,https://www.otodom.pl/oferta/mistrzejowice-3pok-idealny-uklad-promocja-sprawdz-ID3V7jy.html#948935011d,2019-03-11 07:59:21.189793,Mistrzejowicka,"Kraków, : Mistrzejowice, Mistrzejowicka","Mistrzejowicka, Mistrzejowice, Kraków, województwo małopolskie, 31-638, Polska",dzielnica_ulica,"(50.094553, 20.0276976, 0.0)",50.094553,20.0276976,0.0
565,Piękny Apartament Kraków Stare Miasto  Wykończony!,: Stare Miasto,2.0,377 000 ,33.0,11424.0,https://www.otodom.pl/oferta/piekny-apartament-krakow-stare-miasto-wykonczony-ID3V7e4.html#731d207af4,2019-03-11 07:59:22.065074,Starego,"Kraków, : Stare Miasto, Starego","Sarkofag Zygmunta I Starego, 1, Dziedziniec Batorego, Stare Miasto, Kraków, województwo małopolskie, 31-001, Polska",dzielnica_ulica,"(50.0547963, 19.9356012, 0.0)",50.0547963,19.9356012,0.0
568,Nowoczesne 3pok.  Os.Szkolne,: Nowa Huta,3.0,385 500 ,48.57,7937.0,https://www.otodom.pl/oferta/nowoczesne-3pok-mieszkanie-na-sprzedaz-os-szkolne-ID3V6Uv.html#731d207af4,2019-03-11 07:59:22.065074,Szkolne,"Kraków, : Nowa Huta, Szkolne","Osiedle Szkolne, Osiedle Na Skarpie, Nowa Huta, Kraków, województwo małopolskie, Polska",dzielnica_ulica,"(50.0774958, 20.0482373, 0.0)",50.0774958,20.0482373,0.0
573,Polecam Ugorek 35m2 1p/X dwa balkony!!!po remoncie,: Ugorek,1.0,299 000 ,35.16,8504.0,https://www.otodom.pl/oferta/polecam-ugorek-35m2-1p-x-dwa-balkony-po-remoncie-ID3V6NO.html#731d207af4,2019-03-11 07:59:22.065074,Ugorek,"Kraków, : Ugorek, Ugorek","Ugorek, Prądnik Czerwony, Kraków, województwo małopolskie, 31-457, Polska",dzielnica_ulica,"(50.0761099, 19.9820437, 0.0)",50.0761099,19.9820437,0.0
576,Kazimierz M3 71 m2   Wrzesińska,: Kazimierz,3.0,547 000 ,71.0,7704.0,https://www.otodom.pl/oferta/kazimierz-m3-71-m2-ul-wrzesinska-ID3V6qI.html#731d207af4,2019-03-11 07:59:22.065074,Kazimierza,"Kraków, : Kazimierz, Kazimierza","Kazimierza Brodzińskiego, Podgórze, Kraków, województwo małopolskie, 30-506, Polska",dzielnica_ulica,"(50.0461323, 19.9487447, 0.0)",50.0461323,19.9487447,0.0
581,3pokojowe widokowe w Łagiewnikach,: Łagiewniki-Borek Fałęcki,3.0,380 000 ,68.0,5588.0,https://www.otodom.pl/oferta/3pokojowe-widokowe-w-lagiewnikach-ID3V6jV.html#731d207af4,2019-03-11 07:59:22.065074,,"Kraków, : Łagiewniki-Borek Fałęcki, ","Łagiewniki-Borek Fałęcki, Kraków, województwo małopolskie, Polska",dzielnica_ulica,"(50.01602785, 19.927999896091713, 0.0)",50.01602785,19.927999896091713,0.0
582,Mieszkanie  wysoki standard  Wola Duchacka,: Wola Duchacka,3.0,439 000 ,52.11,8424.0,https://www.otodom.pl/oferta/mieszkanie-wysoki-standard-wola-duchacka-ID3V6eU.html#731d207af4,2019-03-11 07:59:22.065074,Duchacka,"Kraków, : Wola Duchacka, Duchacka","Kraków Bonarka, Kładka pieszo-rowerowa, Wola Duchacka, Podgórze Duchackie, Kraków, województwo małopolskie, 30-416, Polska",dzielnica_ulica,"(50.0293189, 19.9462275, 0.0)",50.0293189,19.9462275,0.0
587,Mieszkanie Wola Duchacka    Gołaśka,: Wola Duchacka,4.0,439 000 ,85.3,5147.0,https://www.otodom.pl/oferta/mieszkanie-wola-duchacka-ul-golaska-ID3V6cA.html#acddc40820,2019-03-11 07:59:22.908528,Duchacka,"Kraków, : Wola Duchacka, Duchacka","Kraków Bonarka, Kładka pieszo-rowerowa, Wola Duchacka, Podgórze Duchackie, Kraków, województwo małopolskie, 30-416, Polska",dzielnica_ulica,"(50.0293189, 19.9462275, 0.0)",50.0293189,19.9462275,0.0
595,Mieszkanie w Krakowie  25% wartości!,: Bronowice,2.0,226 515 ,51.0,4441.0,https://www.otodom.pl/oferta/mieszkanie-w-krakowie-25-wartosci-ID3V5WC.html#acddc40820,2019-03-11 07:59:22.908528,Krakowa,"Kraków, : Bronowice, Krakowa","Aleja Kasy Oszczędności Miasta Krakowa, Las Wolski, Zwierzyniec, Kraków, województwo małopolskie, 30-228, Polska",dzielnica_ulica,"(50.0565403, 19.8541101, 0.0)",50.0565403,19.8541101,0.0
596,Kraków   Stare Miasto     Czysta   34 32 m2,: Stare Miasto,1.0,350 000 ,34.32,10198.0,https://www.otodom.pl/oferta/krakow-stare-miasto-ul-czysta-34-32-m2-ID3V5TO.html#acddc40820,2019-03-11 07:59:22.908528,Starego,"Kraków, : Stare Miasto, Starego","Sarkofag Zygmunta I Starego, 1, Dziedziniec Batorego, Stare Miasto, Kraków, województwo małopolskie, 31-001, Polska",dzielnica_ulica,"(50.0547963, 19.9356012, 0.0)",50.0547963,19.9356012,0.0
597,Apartament w centrum Krakowa   125 m2   4 pokoje,: Stare Miasto,4.0,1 600 000 ,125.0,12800.0,https://www.otodom.pl/oferta/apartament-w-centrum-krakowa-125-m2-4-pokoje-ID3V5NO.html#acddc40820,2019-03-11 07:59:22.908528,Krakowa,"Kraków, : Stare Miasto, Krakowa","Muzeum Historyczne Miasta Krakowa, 35, Rynek Główny, Stare Miasto, Kraków, województwo małopolskie, 31-013, Polska",dzielnica_ulica,"(50.0627747, 19.936496, 0.0)",50.0627747,19.936496,0.0
605,Sprzedam mieszkanie Ruczaj   Konopczyńskiego,: Ruczaj,3.0,850 000 ,69.0,12319.0,https://www.otodom.pl/oferta/sprzedam-mieszkanie-ruczaj-konopczynskiego-ID3V5rS.html#acddc40820,2019-03-11 07:59:22.908528,Ruczaj,"Kraków, : Ruczaj, Ruczaj","Ruczaj, Osiedle Ruczaj-Zaborze, Dębniki, Kraków, województwo małopolskie, 30-409, Polska",dzielnica_ulica,"(50.0259495, 19.9198508, 0.0)",50.0259495,19.9198508,0.0
606,Nowa kawalerka 18m2 Kraków Nowy Kleparz okolice,: Krowodrza,1.0,169 000 ,18.0,9389.0,https://www.otodom.pl/oferta/nowa-kawalerka-18m2-krakow-nowy-kleparz-okolice-ID3V5qU.html#acddc40820,2019-03-11 07:59:22.908528,,"Kraków, : Krowodrza, ","Krowodrza, Kraków, województwo małopolskie, Polska",dzielnica_ulica,"(50.07087985, 19.91656311814478, 0.0)",50.07087985,19.91656311814478,0.0
608,Bronowice   kawalerka z balkonem,: Bronowice,1.0,319 000 ,37.0,8622.0,https://www.otodom.pl/oferta/bronowice-kawalerka-z-balkonem-ID3V5qk.html#acddc40820,2019-03-11 07:59:22.908528,Bronowicka,"Kraków, : Bronowice, Bronowicka","Bronowicka, Bronowice, Kraków, województwo małopolskie, 30-091, Polska",dzielnica_ulica,"(50.079245, 19.8970729, 0.0)",50.079245,19.8970729,0.0
614,Mieszkanie inwestycyjne  do remontu  Ludwinów!,: Ludwinów,4.0,760 000 ,100.0,7600.0,https://www.otodom.pl/oferta/mieszkanie-inwestycyjne-do-remontu-ludwinow-ID3V5b6.html#0152a09993,2019-03-11 07:59:23.611583,,"Kraków, : Ludwinów, ","Ludwinów, Dębniki, Kraków, województwo małopolskie, Polska",dzielnica_ulica,"(50.044425, 19.9364398, 0.0)",50.044425,19.9364398,0.0
615,Nowoczesne 2 pokoje w apartamentowcu na Zabłociu,: Grzegórzki,2.0,630 000 ,60.0,10500.0,https://www.otodom.pl/oferta/nowoczesne-2-pokoje-w-apartamentowcu-na-zablociu-ID3V5aM.html#0152a09993,2019-03-11 07:59:23.611583,,"Kraków, : Grzegórzki, ","Grzegórzki, Kraków, województwo małopolskie, Polska",dzielnica_ulica,"(50.06497215, 19.968825516425383, 0.0)",50.06497215,19.968825516425383,0.0
621,Górka Narodowa   trzypokojowe mieszkanie z tarasem,: Górka Narodowa,3.0,485 000 ,65.53,7401.0,https://www.otodom.pl/oferta/gorka-narodowa-trzypokojowe-mieszkanie-z-tarasem-ID3V58v.html#0152a09993,2019-03-11 07:59:23.611583,Narodowa,"Kraków, : Górka Narodowa, Narodowa","Górka Narodowa, Witkowice, Prądnik Biały, Kraków, województwo małopolskie, 31-234, Polska",dzielnica_ulica,"(50.1029668, 19.9519549, 0.0)",50.1029668,19.9519549,0.0
625,Kawalerka w Nowej Hucie na  Kalinowym   okazja,: Nowa Huta,1.0,175 000 ,20.0,8750.0,https://www.otodom.pl/oferta/kawalerka-w-nowej-hucie-na-os-kalinowym-okazja-ID3V516.html#0152a09993,2019-03-11 07:59:23.611583,Nowe,"Kraków, : Nowa Huta, Nowe","Nowa, 7, Osiedle Zgody, Nowa Huta, Kraków, województwo małopolskie, 31-949, Polska",dzielnica_ulica,"(50.0763518, 20.0380639, 0.0)",50.0763518,20.0380639,0.0
627,Czyżyny 3 pokoje Gotowe do Odbioru,: Nowa Huta,2.0,335 000 ,49.5,6768.0,https://www.otodom.pl/oferta/czyzyny-3-pokoje-gotowe-do-odbioru-ID3V4WV.html#0152a09993,2019-03-11 07:59:23.611583,,"Kraków, : Nowa Huta, ","Nowa Huta, Kraków, województwo małopolskie, Polska",dzielnica_ulica,"(50.080618650000005, 20.129332198005237, 0.0)",50.080618650000005,20.129332198005237,0.0
633,Mieszkanie 2 pokojowe   Łagiewniki,: Łagiewniki,2.0,275 000 ,33.38,8238.0,https://www.otodom.pl/oferta/mieszkanie-2-pokojowe-lagiewniki-ID3V4La.html#0152a09993,2019-03-11 07:59:23.611583,Łagiewnicki,"Kraków, : Łagiewniki, Łagiewnicki","Plac Łagiewnicki, Osiedle Cegielniana, Łagiewniki-Borek Fałęcki, Kraków, województwo małopolskie, 30-407, Polska",dzielnica_ulica,"(50.0285906, 19.9311524, 0.0)",50.0285906,19.9311524,0.0
641,Kapelanka: duży balkon  piękny widok  winda  garaż,: Zakrzówek,2.0,545 000 ,50.0,10900.0,https://www.otodom.pl/oferta/kapelanka-duzy-balkon-piekny-widok-winda-garaz-ID3V4uo.html#af9a30ba0a,2019-03-11 07:59:24.346288,Kapelanka,"Kraków, : Zakrzówek, Kapelanka","Kapelanka, Zakrzówek, Dębniki, Kraków, województwo małopolskie, 30-346, Polska",dzielnica_ulica,"(50.0452783, 19.921422, 0.0)",50.0452783,19.921422,0.0
646,Nowoczesne  Urzędnicza 19  2 pokoje+ kuchnia,: Czarna Wieś,2.0,420 000 ,45.0,9333.0,https://www.otodom.pl/oferta/nowoczesne-urzednicza-19-2-pokoje-kuchnia-ID3V4nK.html#af9a30ba0a,2019-03-11 07:59:24.346288,Urzędnicza,"Kraków, : Czarna Wieś, Urzędnicza","Urzędnicza, Czarna Wieś, Krowodrza, Kraków, województwo małopolskie, 30-051, Polska",dzielnica_ulica,"(50.0676659, 19.9181922, 0.0)",50.0676659,19.9181922,0.0
647,Kraków   Lea 4 pokoje + miejsca p ojowe,: Krowodrza,4.0,625 000 ,70.0,8929.0,https://www.otodom.pl/oferta/krakow-ul-lea-4-pokoje-miejsca-postojowe-ID3V4mY.html#af9a30ba0a,2019-03-11 07:59:24.346288,Kmieca,"Kraków, : Krowodrza, Kmieca","Kmieca, Nowa Wieś, Krowodrza, Kraków, województwo małopolskie, 30-022, Polska",dzielnica_ulica,"(50.0780342, 19.9227787, 0.0)",50.0780342,19.9227787,0.0
649,/Nowa Huta/Świetna Inwestycja/Do Własnej Aranżacji,: Mistrzejowice,3.0,299 000 ,47.8,6255.0,https://www.otodom.pl/oferta/nowa-huta-swietna-inwestycja-do-wlasnej-aranzacji-ID3V4mg.html#af9a30ba0a,2019-03-11 07:59:24.346288,Nowa,"Kraków, : Mistrzejowice, Nowa","Mistrzejowice, Kraków, województwo małopolskie, Polska",dzielnica_ulica,"(50.09742625, 20.00960263225891, 0.0)",50.09742625,20.00960263225891,0.0
655,Mieszkanie   Kraków Podgórze,: Podgórze,3.0,430 000 ,65.0,6615.0,https://www.otodom.pl/oferta/mieszkanie-krakow-podgorze-ID3V4as.html#af9a30ba0a,2019-03-11 07:59:24.346288,,"Kraków, : Podgórze, ","Podgórze, Kraków, województwo małopolskie, Polska",dzielnica_ulica,"(50.042609, 20.011697369877197, 0.0)",50.042609,20.011697369877197,0.0
656,Mieszkanie   Kraków Ruczaj,: Ruczaj,1.0,250 000 ,31.43,7954.0,https://www.otodom.pl/oferta/mieszkanie-krakow-ruczaj-ID3V4ao.html#af9a30ba0a,2019-03-11 07:59:24.346288,Ruczaj,"Kraków, : Ruczaj, Ruczaj","Ruczaj, Osiedle Ruczaj-Zaborze, Dębniki, Kraków, województwo małopolskie, 30-409, Polska",dzielnica_ulica,"(50.0259495, 19.9198508, 0.0)",50.0259495,19.9198508,0.0
657,Mieszkanie   Kraków Ruczaj,: Ruczaj,1.0,227 000 ,26.32,8625.0,https://www.otodom.pl/oferta/mieszkanie-krakow-ruczaj-ID3V4ak.html#af9a30ba0a,2019-03-11 07:59:24.346288,Ruczaj,"Kraków, : Ruczaj, Ruczaj","Ruczaj, Osiedle Ruczaj-Zaborze, Dębniki, Kraków, województwo małopolskie, 30-409, Polska",dzielnica_ulica,"(50.0259495, 19.9198508, 0.0)",50.0259495,19.9198508,0.0
658,Mieszkanie   Kraków Ruczaj,: Ruczaj,2.0,325 000 ,40.29,8067.0,https://www.otodom.pl/oferta/mieszkanie-krakow-ruczaj-ID3V4ac.html#af9a30ba0a,2019-03-11 07:59:24.346288,Ruczaj,"Kraków, : Ruczaj, Ruczaj","Ruczaj, Osiedle Ruczaj-Zaborze, Dębniki, Kraków, województwo małopolskie, 30-409, Polska",dzielnica_ulica,"(50.0259495, 19.9198508, 0.0)",50.0259495,19.9198508,0.0
659,Mieszkanie   Kraków Ruczaj,: Ruczaj,1.0,269 000 ,28.41,9468.0,https://www.otodom.pl/oferta/mieszkanie-krakow-ruczaj-ID3V4ag.html#af9a30ba0a,2019-03-11 07:59:24.346288,Ruczaj,"Kraków, : Ruczaj, Ruczaj","Ruczaj, Osiedle Ruczaj-Zaborze, Dębniki, Kraków, województwo małopolskie, 30-409, Polska",dzielnica_ulica,"(50.0259495, 19.9198508, 0.0)",50.0259495,19.9198508,0.0
660,2 pokoje z balkonem  Bieżanów  Cisza i zieleń,: Bieżanów-Prokocim,2.0,208 000 ,34.5,6029.0,https://www.otodom.pl/oferta/2-pokoje-z-balkonem-biezanow-cisza-i-zielen-ID3V49K.html#af9a30ba0a,2019-03-11 07:59:24.346288,,"Kraków, : Bieżanów-Prokocim, ","Bieżanów-Prokocim, Kraków, województwo małopolskie, Polska",dzielnica_ulica,"(50.01706235, 20.022991856015395, 0.0)",50.01706235,20.022991856015395,0.0
661,3 pokoje z balkonem  Bieżanów  Cisza i zieleń,: Bieżanów-Prokocim,3.0,279 500 ,49.0,5704.0,https://www.otodom.pl/oferta/3-pokoje-z-balkonem-biezanow-cisza-i-zielen-ID3V49S.html#af9a30ba0a,2019-03-11 07:59:24.346288,,"Kraków, : Bieżanów-Prokocim, ","Bieżanów-Prokocim, Kraków, województwo małopolskie, Polska",dzielnica_ulica,"(50.01706235, 20.022991856015395, 0.0)",50.01706235,20.022991856015395,0.0
662,Wola Justowska 2 pok.   4 km od Centrum,: Wola Justowska,2.0,394 000 ,44.0,8955.0,https://www.otodom.pl/oferta/wola-justowska-2-pok-4-km-od-centrum-ID3V49G.html#af9a30ba0a,2019-03-11 07:59:24.346288,Justowska,"Kraków, : Wola Justowska, Justowska","FUP Kraków 23, 238, Królowej Jadwigi, Zwierzyniec, Kraków, województwo małopolskie, 30-220, Polska",dzielnica_ulica,"(50.0650619, 19.877649, 0.0)",50.0650619,19.877649,0.0
670,2 pokoje  Zwierzyniec  oddanie w tym roku  Ogród,: Zwierzyniec,3.0,473 000 ,57.0,8298.0,https://www.otodom.pl/oferta/2-pokoje-zwierzyniec-oddanie-w-tym-roku-ogrod-ID3V428.html#733bc83f5e,2019-03-11 07:59:25.033871,Zwierzyniecki,"Kraków, : Zwierzyniec, Zwierzyniecki","Muzeum Narodowe w Krakowie, 1, Aleja 3 Maja, Półwsie Zwierzynieckie, Zwierzyniec, Kraków, województwo małopolskie, 30-062, Polska",dzielnica_ulica,"(50.06043135, 19.923620120041726, 0.0)",50.06043135,19.923620120041726,0.0
673,Mogilska Tower 55m2 nowe niezamieszkałe wykończone,: Wieczysta,3.0,605 000 ,55.0,11000.0,https://www.otodom.pl/oferta/mogilska-tower-55m2-nowe-niezamieszkale-wykonczone-ID3V3Z6.html#733bc83f5e,2019-03-11 07:59:25.033871,Mogilska,"Kraków, : Wieczysta, Mogilska","Mogilska, Wieczysta, Prądnik Czerwony, Kraków, województwo małopolskie, 31-571, Polska",dzielnica_ulica,"(50.0711182, 19.9831694, 0.0)",50.0711182,19.9831694,0.0
678,2 pokojowe po remoncie  Ludwinów,: Ludwinów,2.0,370 000 ,30.9,11974.0,https://www.otodom.pl/oferta/2-pokojowe-po-remoncie-ludwinow-ID3V3Ny.html#733bc83f5e,2019-03-11 07:59:25.033871,,"Kraków, : Ludwinów, ","Ludwinów, Dębniki, Kraków, województwo małopolskie, Polska",dzielnica_ulica,"(50.044425, 19.9364398, 0.0)",50.044425,19.9364398,0.0
683,Wola Justowska 4 pok.   7 km od Centrum,: Wola Justowska,4.0,747 000 ,98.0,7622.0,https://www.otodom.pl/oferta/wola-justowska-4-pok-7-km-od-centrum-ID3V3Ks.html#733bc83f5e,2019-03-11 07:59:25.033871,Justowska,"Kraków, : Wola Justowska, Justowska","FUP Kraków 23, 238, Królowej Jadwigi, Zwierzyniec, Kraków, województwo małopolskie, 30-220, Polska",dzielnica_ulica,"(50.0650619, 19.877649, 0.0)",50.0650619,19.877649,0.0
687,3 pokoje  Bronowice koło parku  Gotowe,: Bronowice Małe,3.0,508 000 ,60.0,8467.0,https://www.otodom.pl/oferta/3-pokoje-bronowice-kolo-parku-gotowe-ID3V3Ck.html#733bc83f5e,2019-03-11 07:59:25.033871,Bronowicka,"Kraków, : Bronowice Małe, Bronowicka","Bronowicka, Bronowice Małe, Bronowice, Kraków, województwo małopolskie, 30-139, Polska",dzielnica_ulica,"(50.0816928, 19.8902943, 0.0)",50.0816928,19.8902943,0.0
688,2 pokoje z dużym Tarasem 34m2 Bronowice koło Parku,: Bronowice Małe,2.0,462 000 ,56.0,8250.0,https://www.otodom.pl/oferta/2-pokoje-z-duzym-tarasem-34m2-bronowice-kolo-parku-ID3V3Cc.html#733bc83f5e,2019-03-11 07:59:25.033871,Bronowicka,"Kraków, : Bronowice Małe, Bronowicka","Bronowicka, Bronowice Małe, Bronowice, Kraków, województwo małopolskie, 30-139, Polska",dzielnica_ulica,"(50.0816928, 19.8902943, 0.0)",50.0816928,19.8902943,0.0
690,Mieszkanie 3 pokojowe   Kraków 3 5 km od Centrum,: Prądnik Biały,3.0,350 000 ,47.6,7353.0,https://www.otodom.pl/oferta/mieszkanie-3-pokojowe-krakow-3-5-km-od-centrum-ID3V3C8.html#733bc83f5e,2019-03-11 07:59:25.033871,,"Kraków, : Prądnik Biały, ","Prądnik Biały, Kraków, województwo małopolskie, Polska",dzielnica_ulica,"(50.1035684, 19.953603106301202, 0.0)",50.1035684,19.953603106301202,0.0
691,Mieszkanie 3 pokojowe   Kraków 3 5 km od Centrum,: Prądnik Biały,3.0,432 000 ,58.0,7448.0,https://www.otodom.pl/oferta/mieszkanie-3-pokojowe-krakow-3-5-km-od-centrum-ID3V3BV.html#733bc83f5e,2019-03-11 07:59:25.033871,,"Kraków, : Prądnik Biały, ","Prądnik Biały, Kraków, województwo małopolskie, Polska",dzielnica_ulica,"(50.1035684, 19.953603106301202, 0.0)",50.1035684,19.953603106301202,0.0
695,Piętro w Kamienicy   Zwierzyniecka 500m od Rynku,: Stare Miasto,9.0,3 200 000 ,200.0,16000.0,https://www.otodom.pl/oferta/pietro-w-kamienicy-ul-zwierzyniecka-500m-od-rynku-ID3V3us.html#9a94e89e50,2019-03-11 07:59:25.705019,Kamieniecka,"Kraków, : Stare Miasto, Kamieniecka","Kamieniecka, Kobierzyn, Swoszowice, Kraków, województwo małopolskie, 30-389, Polska",dzielnica_ulica,"(49.9999904, 19.8972532, 0.0)",49.9999904,19.8972532,0.0
698,1 pokój  jasna kuchnia  Winda,: małopolskie,1.0,229 000 ,29.54,7752.0,https://www.otodom.pl/oferta/1-pokoj-jasna-kuchnia-winda-ID3V3qA.html#9a94e89e50,2019-03-11 07:59:25.705019,Jasna,"Kraków, : małopolskie, Jasna","Jasna, Prądnik Biały, Kraków, województwo małopolskie, 31-227, Polska",dzielnica_ulica,"(50.095578, 19.9274648, 0.0)",50.095578,19.9274648,0.0
699,Mieszkanie 4 pokojowe   Kraków  3 5 km od Centrum,: Prądnik Biały,4.0,381 000 ,55.0,6927.0,https://www.otodom.pl/oferta/mieszkanie-4-pokojowe-krakow-3-5-km-od-centrum-ID3V3pq.html#9a94e89e50,2019-03-11 07:59:25.705019,,"Kraków, : Prądnik Biały, ","Prądnik Biały, Kraków, województwo małopolskie, Polska",dzielnica_ulica,"(50.1035684, 19.953603106301202, 0.0)",50.1035684,19.953603106301202,0.0
721,Ruczaj/2 pokoje/39m2/4 piętro,: Ruczaj,2.0,299 000 ,39.07,7653.0,https://www.otodom.pl/oferta/ruczaj-2-pokoje-39m2-4-pietro-ID3R3lu.html#4e65447592,2019-03-11 07:59:26.536063,Ruczaj,"Kraków, : Ruczaj, Ruczaj","Ruczaj, Osiedle Ruczaj-Zaborze, Dębniki, Kraków, województwo małopolskie, 30-409, Polska",dzielnica_ulica,"(50.0259495, 19.9198508, 0.0)",50.0259495,19.9198508,0.0
722,Wielicka Garden/Gotowe/ 3  pokoje/52m2,: Podgórze,3.0,485 000 ,52.0,9327.0,https://www.otodom.pl/oferta/wielicka-garden-gotowe-3-pokoje-52m2-ID3Rkre.html#4e65447592,2019-03-11 07:59:26.536063,Wielicka,"Kraków, : Podgórze, Wielicka","Wielicka, Prokocim, Podgórze, Kraków, województwo małopolskie, 30-803, Polska",dzielnica_ulica,"(50.0267461, 19.9769448, 0.0)",50.0267461,19.9769448,0.0
725,Mieszkanie 2 pok Ruczaj Kraków,: małopolskie,2.0,357 000 ,50.05,7133.0,https://www.otodom.pl/oferta/mieszkanie-2-pok-ruczaj-krakow-ID3Sx8Q.html#4e65447592,2019-03-11 07:59:26.536063,Ruczaj,"Kraków, : małopolskie, Ruczaj","Ruczaj, Osiedle Ruczaj-Zaborze, Dębniki, Kraków, województwo małopolskie, 30-409, Polska",dzielnica_ulica,"(50.0259495, 19.9198508, 0.0)",50.0259495,19.9198508,0.0
743,Mieszkanie 29m2 *  Wielicka * kawalerka * garaż,: Podgórze,1.0,245 000 ,29.0,8448.0,https://www.otodom.pl/oferta/mieszkanie-29m2-ul-wielicka-kawalerka-garaz-ID3UFLu.html#4e65447592,2019-03-11 07:59:26.536063,Wielicka,"Kraków, : Podgórze, Wielicka","Wielicka, Prokocim, Podgórze, Kraków, województwo małopolskie, 30-803, Polska",dzielnica_ulica,"(50.0267461, 19.9769448, 0.0)",50.0267461,19.9769448,0.0
746,Dwupoziomowy Apartament Ruczaj,: Ruczaj,4.0,730 000 ,134.97,5409.0,https://www.otodom.pl/oferta/dwupoziomowy-apartament-ruczaj-ID3SbeU.html#4e65447592,2019-03-11 07:59:26.536063,Ruczaj,"Kraków, : Ruczaj, Ruczaj","Ruczaj, Osiedle Ruczaj-Zaborze, Dębniki, Kraków, województwo małopolskie, 30-409, Polska",dzielnica_ulica,"(50.0259495, 19.9198508, 0.0)",50.0259495,19.9198508,0.0
755,Inwestycyjne 2 pokojowe z tarasem   Starowiślna,: małopolskie,2.0,465 000 ,32.0,14531.0,https://www.otodom.pl/oferta/inwestycyjne-2-pokojowe-z-tarasem-ul-starowislna-ID3VeoU.html#89e33f6554,2019-03-12 08:53:03.294163,Starowiślna,"Kraków, : małopolskie, Starowiślna","Starowiślna, Kazimierz, Stare Miasto, Kraków, województwo małopolskie, 31-038, Polska",dzielnica_ulica,"(50.0560672, 19.9457877, 0.0)",50.0560672,19.9457877,0.0
757,Mieszkanie 53m2  do remontu! Bieżanów Prokocim,: Bieżanów,2.0,270 000 ,53.0,5094.0,https://www.otodom.pl/oferta/mieszkanie-53m2-do-remontu-biezanow-prokocim-ID3VePC.html#89e33f6554,2019-03-12 08:53:03.294163,,"Kraków, : Bieżanów, ","Bieżanów, Bieżanów-Prokocim, Kraków, województwo małopolskie, Polska",dzielnica_ulica,"(50.0160061, 20.0372002, 0.0)",50.0160061,20.0372002,0.0
758,Piękne mieszkanie z ogrodem,: małopolskie,3.0,480 000 ,64.3,7465.0,https://www.otodom.pl/oferta/piekne-mieszkanie-z-ogrodem-ID3VdE0.html#89e33f6554,2019-03-12 08:53:03.294163,Ogrodem,"Kraków, : małopolskie, Ogrodem","Za Ogrodem, Wadów, Wzgórza Krzesławickie, Kraków, województwo małopolskie, 31-990, Polska",dzielnica_ulica,"(50.0986422, 20.1175645, 0.0)",50.0986422,20.1175645,0.0
763,Krowodrza 2 pok po generalnym remoncie urządzone,: Krowodrza,2.0,303 000 ,38.0,7974.0,https://www.otodom.pl/oferta/krowodrza-2-pok-po-generalnym-remoncie-urzadzone-ID3Vg4Y.html#89e33f6554,2019-03-12 08:53:03.294163,Krowoderska,"Kraków, : Krowodrza, Krowoderska","Krowoderska, Kleparz, Stare Miasto, Kraków, województwo małopolskie, 32-158, Polska",dzielnica_ulica,"(50.0723986, 19.9317322, 0.0)",50.0723986,19.9317322,0.0
764,3 pokoje w wysokim standardzie na Os. Za Fortem,: Kliny-Zacisze,3.0,495 000 ,61.2,8088.0,https://www.otodom.pl/oferta/3-pokoje-w-wysokim-standardzie-na-os-za-fortem-ID3Vg4c.html#89e33f6554,2019-03-12 08:53:03.294163,Fortem,"Kraków, : Kliny-Zacisze, Fortem","Pod Fortem, Kobierzyn, Swoszowice, Kraków, województwo małopolskie, Polska",dzielnica_ulica,"(49.998598900000005, 19.897240433286914, 0.0)",49.998598900000005,19.897240433286914,0.0
768,Krowodrza Azory  1 pokojowe garsoniera do wejścia,: Krowodrza,1.0,199 000 ,20.0,9950.0,https://www.otodom.pl/oferta/krowodrza-azory-1-pokojowe-garsoniera-do-wejscia-ID3Vg3y.html#89e33f6554,2019-03-12 08:53:03.294163,Krowoderska,"Kraków, : Krowodrza, Krowoderska","Krowoderska, Kleparz, Stare Miasto, Kraków, województwo małopolskie, 32-158, Polska",dzielnica_ulica,"(50.0723986, 19.9317322, 0.0)",50.0723986,19.9317322,0.0
772,Mieszkanie Salwator 78m2  4 pokoje  duży taras!,: Krowodrza,4.0,800 000 ,78.0,10256.0,https://www.otodom.pl/oferta/mieszkanie-salwator-78m2-4-pokoje-duzy-taras-ID3VfEQ.html#89e33f6554,2019-03-12 08:53:03.309796,Salwatorska,"Kraków, : Krowodrza, Salwatorska","Salwatorska, Półwsie Zwierzynieckie, Zwierzyniec, Kraków, województwo małopolskie, 30-109, Polska",dzielnica_ulica,"(50.0559857, 19.9189418, 0.0)",50.0559857,19.9189418,0.0
773,Mieszkanie na  edlu Teatralnym 45m2,: Nowa Huta,3.0,358 000 ,45.0,7956.0,https://www.otodom.pl/oferta/mieszkanie-na-osiedlu-teatralnym-45m2-ID3VfEU.html#89e33f6554,2019-03-12 08:53:03.309796,Teatralne,"Kraków, : Nowa Huta, Teatralne","Osiedle Teatralne, Nowa Huta, Kraków, województwo małopolskie, Polska",dzielnica_ulica,"(50.0797342, 20.0327324, 0.0)",50.0797342,20.0327324,0.0
774,Mieszkanie 37 28m2 Zabłocie dwupoziomowe.,: Zabłocie,2.0,380 000 ,37.28,10193.0,https://www.otodom.pl/oferta/mieszkanie-37-28m2-zablocie-dwupoziomowe-ID3VfEM.html#89e33f6554,2019-03-12 08:53:03.309796,Zabłocie,"Kraków, : Zabłocie, Zabłocie","Zabłocie, Podgórze, Kraków, województwo małopolskie, 30-701, Polska",dzielnica_ulica,"(50.050241, 19.9619043, 0.0)",50.050241,19.9619043,0.0
775,Mieszkanie 35m2 Bieżanów   Prokocim,: Bieżanów,1.0,250 000 ,35.0,7143.0,https://www.otodom.pl/oferta/mieszkanie-35m2-biezanow-prokocim-ID3VfEI.html#89e33f6554,2019-03-12 08:53:03.309796,,"Kraków, : Bieżanów, ","Bieżanów, Bieżanów-Prokocim, Kraków, województwo małopolskie, Polska",dzielnica_ulica,"(50.0160061, 20.0372002, 0.0)",50.0160061,20.0372002,0.0
779,Apartament Halczyna,: Łobzów,6.0,940 000 ,138.0,6812.0,https://www.otodom.pl/oferta/apartament-halczyna-ID3VfEo.html#89e33f6554,2019-03-12 08:53:03.309796,Halczyna,"Kraków, : Łobzów, Halczyna","Wojciecha Halczyna, Łobzów, Krowodrza, Kraków, województwo małopolskie, 30-085, Polska",dzielnica_ulica,"(50.0798607, 19.9069207, 0.0)",50.0798607,19.9069207,0.0
780,Kurdwanów  1 pokojowe   bna kuchnia  balkon,: Podgórze Duchackie,1.0,240 000 ,33.4,7186.0,https://www.otodom.pl/oferta/kurdwanow-1-pokojowe-osobna-kuchnia-balkon-ID3VfDm.html#89e33f6554,2019-03-12 08:53:03.309796,,"Kraków, : Podgórze Duchackie, ","Podgórze Duchackie, Kraków, województwo małopolskie, Polska",dzielnica_ulica,"(50.01618985, 19.959420960382204, 0.0)",50.01618985,19.959420960382204,0.0
789,Piękne  po remoncie 3 pok. Żabiniec 56m2  parking,: małopolskie,3.0,429 000 ,56.0,7661.0,https://www.otodom.pl/oferta/piekne-po-remoncie-3-pok-zabiniec-56m2-parking-ID3VbsY.html#3f7ebb237a,2019-03-12 08:53:04.950569,Żabiniec,"Kraków, : małopolskie, Żabiniec","Żabiniec, Prądnik Biały, Kraków, województwo małopolskie, 31-200, Polska",dzielnica_ulica,"(50.0851745, 19.9473248, 0.0)",50.0851745,19.9473248,0.0
792,Duże Mieszkanie Prądnik Czerwony,: Prądnik Czerwony,3.0,465 000 ,85.0,5471.0,https://www.otodom.pl/oferta/duze-mieszkanie-pradnik-czerwony-ID3Vfgv.html#3f7ebb237a,2019-03-12 08:53:04.950569,Czerwona,"Kraków, : Prądnik Czerwony, Czerwona","Czerwona, Olsza II, Prądnik Czerwony, Kraków, województwo małopolskie, 31-424, Polska",dzielnica_ulica,"(50.0849372, 19.9554073, 0.0)",50.0849372,19.9554073,0.0
796,Przestronne   29 50 M2   187 000    Łobzów,: Łobzów,1.0,187 000 ,29.5,6339.0,https://www.otodom.pl/oferta/przestronne-29-50-m2-187-000-zl-lobzow-ID3Vfbm.html#3f7ebb237a,2019-03-12 08:53:04.950569,,"Kraków, : Łobzów, ","Łobzów, Krowodrza, Kraków, województwo małopolskie, Polska",dzielnica_ulica,"(50.0752544, 19.911371137173774, 0.0)",50.0752544,19.911371137173774,0.0
797,Garsoniera   19 50 M2   140 000    Łobzów,: Łobzów,1.0,140 000 ,19.5,7179.0,https://www.otodom.pl/oferta/garsoniera-19-50-m2-140-000-zl-lobzow-ID3Vfbq.html#3f7ebb237a,2019-03-12 08:53:04.950569,,"Kraków, : Łobzów, ","Łobzów, Krowodrza, Kraków, województwo małopolskie, Polska",dzielnica_ulica,"(50.0752544, 19.911371137173774, 0.0)",50.0752544,19.911371137173774,0.0
799,Kapitalna Lokalizacja/ Wykończone/ Inwestycja,: Stare Miasto,2.0,362 000 ,34.0,10647.0,https://www.otodom.pl/oferta/kapitalna-lokalizacja-wykonczone-inwestycja-ID3Vf9u.html#3f7ebb237a,2019-03-12 08:53:04.950569,Szpitalna,"Kraków, : Stare Miasto, Szpitalna","Szpitalna, Stare Miasto, Kraków, województwo małopolskie, 31-156, Polska",dzielnica_ulica,"(50.0647876, 19.942688, 0.0)",50.0647876,19.942688,0.0
800,34m2  parter  ogródek. Płaszów,: Płaszów,1.0,318 000 ,34.0,9353.0,https://www.otodom.pl/oferta/34m2-parter-ogrodek-plaszow-ID3Vf4Y.html#3f7ebb237a,2019-03-12 08:53:04.950569,,"Kraków, : Płaszów, ","Płaszów, Podgórze, Kraków, województwo małopolskie, Polska",dzielnica_ulica,"(50.039926949999995, 19.99481075250016, 0.0)",50.039926949999995,19.99481075250016,0.0
802,Mieszkanie 3 pokoje  64 m2   ca Nowohucka,: Płaszów,3.0,479 000 ,64.0,7484.0,https://www.otodom.pl/oferta/mieszkanie-3-pokoje-64-m2-ulica-nowohucka-ID3Vf4Q.html#3f7ebb237a,2019-03-12 08:53:04.950569,Nowohucka,"Kraków, : Płaszów, Nowohucka","Nowohucka, Płaszów, Podgórze, Kraków, województwo małopolskie, 30-712, Polska",dzielnica_ulica,"(50.0448417, 19.973083, 0.0)",50.0448417,19.973083,0.0
811,Gotowa Inwestycja Pod Wynajem*Dla Studentów!,: Krowodrza,6.0,940 000 ,138.63,6781.0,https://www.otodom.pl/oferta/gotowa-inwestycja-pod-wynajemdla-studentow-ID3VeQg.html#3f7ebb237a,2019-03-12 08:53:04.950569,Głogowa,"Kraków, : Krowodrza, Głogowa","Głogowa, Witkowice, Prądnik Biały, Kraków, województwo małopolskie, 31-235, Polska",dzielnica_ulica,"(50.1014133, 19.9430032, 0.0)",50.1014133,19.9430032,0.0
821,Super Oferta! Stare Miasto 2Pok. ! 1 km od Rynku !,: Stare Miasto,2.0,510 000 ,51.2,9961.0,https://www.otodom.pl/oferta/super-oferta-stare-miasto-2pok-1-km-od-rynku-ID3VeJS.html#85fbb29208,2019-03-12 08:53:06.481977,Starego,"Kraków, : Stare Miasto, Starego","Sarkofag Zygmunta I Starego, 1, Dziedziniec Batorego, Stare Miasto, Kraków, województwo małopolskie, 31-001, Polska",dzielnica_ulica,"(50.0547963, 19.9356012, 0.0)",50.0547963,19.9356012,0.0
828,3 pokojowe mieszkanie na Olszy,: Olsza,3.0,396 677 ,55.87,7100.0,https://www.otodom.pl/oferta/3-pokojowe-mieszkanie-na-olszy-ID3VeIQ.html#85fbb29208,2019-03-12 08:53:06.481977,Olszyny,"Kraków, : Olsza, Olszyny","Olszyny, Olsza, Grzegórzki, Kraków, województwo małopolskie, 31-429, Polska",dzielnica_ulica,"(50.0743348, 19.966827, 0.0)",50.0743348,19.966827,0.0
830,2 pokojowe mieszkanie Mistrzejowice,: Mistrzejowice,2.0,270 723 ,44.0,6153.0,https://www.otodom.pl/oferta/2-pokojowe-mieszkanie-mistrzejowice-ID3VeIv.html#85fbb29208,2019-03-12 08:53:06.481977,Mistrzejowicka,"Kraków, : Mistrzejowice, Mistrzejowicka","Mistrzejowicka, Mistrzejowice, Kraków, województwo małopolskie, 31-638, Polska",dzielnica_ulica,"(50.094553, 20.0276976, 0.0)",50.094553,20.0276976,0.0
835,4 pokojowe mieszkanie Mistrzejowice,: Mistrzejowice,4.0,388 020 ,66.9,5800.0,https://www.otodom.pl/oferta/4-pokojowe-mieszkanie-mistrzejowice-ID3VeIs.html#85fbb29208,2019-03-12 08:53:06.481977,Mistrzejowicka,"Kraków, : Mistrzejowice, Mistrzejowicka","Mistrzejowicka, Mistrzejowice, Kraków, województwo małopolskie, 31-638, Polska",dzielnica_ulica,"(50.094553, 20.0276976, 0.0)",50.094553,20.0276976,0.0
838,3 pokoje na Cegielnianej !!!!!!,: Łagiewniki,3.0,441 336 ,59.64,7400.0,https://www.otodom.pl/oferta/3-pokoje-na-cegielnianej-ID3VeI4.html#85fbb29208,2019-03-12 08:53:06.481977,Cegielniana,"Kraków, : Łagiewniki, Cegielniana","Cegielniana, Osiedle Cegielniana, Łagiewniki-Borek Fałęcki, Kraków, województwo małopolskie, 30-404, Polska",dzielnica_ulica,"(50.0273693, 19.9326309, 0.0)",50.0273693,19.9326309,0.0
839,2 pokoje na Cegielnianej !!!!!!,: Łagiewniki,2.0,321 530 ,40.7,7900.0,https://www.otodom.pl/oferta/2-pokoje-na-cegielnianej-ID3VeI8.html#85fbb29208,2019-03-12 08:53:06.481977,Cegielniana,"Kraków, : Łagiewniki, Cegielniana","Cegielniana, Osiedle Cegielniana, Łagiewniki-Borek Fałęcki, Kraków, województwo małopolskie, 30-404, Polska",dzielnica_ulica,"(50.0273693, 19.9326309, 0.0)",50.0273693,19.9326309,0.0
842,Mieszkanie 4 pokojowe Czyżyny,: Czyżyny,4.0,382 935 ,73.19,5232.0,https://www.otodom.pl/oferta/mieszkanie-4-pokojowe-czyzyny-ID3VeHV.html#85fbb29208,2019-03-12 08:53:06.481977,,"Kraków, : Czyżyny, ","Czyżyny, Kraków, województwo małopolskie, Polska",dzielnica_ulica,"(50.06652355, 20.00884129147333, 0.0)",50.06652355,20.00884129147333,0.0
848,Stare Miasto  Garbarska  66m2  3 pok  1 piętro.,: Stare Miasto,3.0,750 000 ,66.0,11364.0,https://www.otodom.pl/oferta/stare-miasto-garbarska-66m2-3-pok-1-pietro-ID3VdFK.html#d245b9f81f,2019-03-12 08:53:08.060292,Starego,"Kraków, : Stare Miasto, Starego","Sarkofag Zygmunta I Starego, 1, Dziedziniec Batorego, Stare Miasto, Kraków, województwo małopolskie, 31-001, Polska",dzielnica_ulica,"(50.0547963, 19.9356012, 0.0)",50.0547963,19.9356012,0.0
850,Mieszkanie 3 pokojowe Grzegórzki,: Grzegórzki,3.0,619 083 ,76.43,8100.0,https://www.otodom.pl/oferta/mieszkanie-3-pokojowe-grzegorzki-ID3VeI0.html#d245b9f81f,2019-03-12 08:53:08.060292,,"Kraków, : Grzegórzki, ","Grzegórzki, Kraków, województwo małopolskie, Polska",dzielnica_ulica,"(50.06497215, 19.968825516425383, 0.0)",50.06497215,19.968825516425383,0.0
853,Trzypokojowe Mieszkanie Koło Bonarki,: Wola Duchacka,3.0,459 000 ,63.24,7258.0,https://www.otodom.pl/oferta/trzypokojowe-mieszkanie-kolo-bonarki-ID3VeHC.html#d245b9f81f,2019-03-12 08:53:08.060292,Bonarka,"Kraków, : Wola Duchacka, Bonarka","Bonarka, Bonarka City Center, Podgórze Duchackie, Kraków, województwo małopolskie, Polska",dzielnica_ulica,"(50.02881094999999, 19.953975973958336, 0.0)",50.02881094999999,19.953975973958336,0.0
854,1 pokojowe mieszkanie obok Bonarki !!!!!,: Łagiewniki,1.0,231 266 ,29.09,7950.0,https://www.otodom.pl/oferta/1-pokojowe-mieszkanie-obok-bonarki-ID3VeHK.html#d245b9f81f,2019-03-12 08:53:08.060292,Bonarka,"Kraków, : Łagiewniki, Bonarka","Bonarka, Łagiewniki-Borek Fałęcki, Kraków, województwo małopolskie, Polska",dzielnica_ulica,"(50.02659155, 19.936215216011504, 0.0)",50.02659155,19.936215216011504,0.0
858,1/2 pokojowe Czyżyny,: Czyżyny,1.0,278 370 ,37.1,7503.0,https://www.otodom.pl/oferta/1-2-pokojowe-czyzyny-ID3VeHq.html#d245b9f81f,2019-03-12 08:53:08.060292,,"Kraków, : Czyżyny, ","Czyżyny, Kraków, województwo małopolskie, Polska",dzielnica_ulica,"(50.06652355, 20.00884129147333, 0.0)",50.06652355,20.00884129147333,0.0
860,Nowa Mikrokawalerka   16 M2   115 000    Łobzów,: Łobzów,1.0,115 000 ,16.0,7188.0,https://www.otodom.pl/oferta/nowa-mikrokawalerka-16-m2-115-000-zl-lobzow-ID3VeHa.html#d245b9f81f,2019-03-12 08:53:08.060292,,"Kraków, : Łobzów, ","Łobzów, Krowodrza, Kraków, województwo małopolskie, Polska",dzielnica_ulica,"(50.0752544, 19.911371137173774, 0.0)",50.0752544,19.911371137173774,0.0
863,Lub ron Ruczaj  77m2  Balkon  3 Pokoje,: Ruczaj,3.0,516 000 ,77.0,6701.0,https://www.otodom.pl/oferta/lubostron-ruczaj-77m2-balkon-3-pokoje-ID3VeC8.html#d245b9f81f,2019-03-12 08:53:08.060292,Ruczaj,"Kraków, : Ruczaj, Ruczaj","Ruczaj, Osiedle Ruczaj-Zaborze, Dębniki, Kraków, województwo małopolskie, 30-409, Polska",dzielnica_ulica,"(50.0259495, 19.9198508, 0.0)",50.0259495,19.9198508,0.0
865,Luksusowy apartament 154 m2   Bronowice,: Bronowice,5.0,1 250 000 ,154.0,8117.0,https://www.otodom.pl/oferta/luksusowy-apartament-154-m2-bronowice-ID3Vevs.html#d245b9f81f,2019-03-12 08:53:08.060292,Bronowicka,"Kraków, : Bronowice, Bronowicka","Bronowicka, Bronowice, Kraków, województwo małopolskie, 30-091, Polska",dzielnica_ulica,"(50.079245, 19.8970729, 0.0)",50.079245,19.8970729,0.0
867,Ruczaj 2 Pokojowe Wysoki Standard,: Ruczaj,2.0,445 000 ,52.0,8558.0,https://www.otodom.pl/oferta/ruczaj-2-pokojowe-wysoki-standard-ID3VemI.html#d245b9f81f,2019-03-12 08:53:08.060292,Ruczaj,"Kraków, : Ruczaj, Ruczaj","Ruczaj, Osiedle Ruczaj-Zaborze, Dębniki, Kraków, województwo małopolskie, 30-409, Polska",dzielnica_ulica,"(50.0259495, 19.9198508, 0.0)",50.0259495,19.9198508,0.0
884,Malownicze Bronowice ustawne mieszkanie 33 78 ,: małopolskie,1.0,240 800 ,33.78,7128.0,https://www.otodom.pl/oferta/malownicze-bronowice-ustawne-mieszkanie-33-78-m-ID3Ve7O.html#2586a7ec49,2019-03-12 08:53:09.622957,Malownicza,"Kraków, : małopolskie, Malownicza","Malownicza, Wola Justowska - Chełm, Zwierzyniec, Kraków, województwo małopolskie, 30-237, Polska",dzielnica_ulica,"(50.0712748, 19.8511314, 0.0)",50.0712748,19.8511314,0.0
885,Bronowice Radzikowskiego trzypokojowe 53m2,: Bronowice Małe,3.0,415 000 ,53.0,7830.0,https://www.otodom.pl/oferta/bronowice-radzikowskiego-trzypokojowe-53m2-ID3Ve5y.html#2586a7ec49,2019-03-12 08:53:09.622957,Bronowicka,"Kraków, : Bronowice Małe, Bronowicka","Bronowicka, Bronowice Małe, Bronowice, Kraków, województwo małopolskie, 30-139, Polska",dzielnica_ulica,"(50.0816928, 19.8902943, 0.0)",50.0816928,19.8902943,0.0
887,Ładne zadbane 3 pokojowe   Tysiąclecia,: Mistrzejowice,3.0,339 000 ,47.3,7167.0,https://www.otodom.pl/oferta/ladne-zadbane-3-pokojowe-os-tysiaclecia-ID3VdWK.html#2586a7ec49,2019-03-12 08:53:09.622957,Tysiąclecia,"Kraków, : Mistrzejowice, Tysiąclecia","Osiedle Tysiąclecia, Mistrzejowice, Kraków, województwo małopolskie, Polska",dzielnica_ulica,"(50.0917147, 20.0012344, 0.0)",50.0917147,20.0012344,0.0
888,Nowe mieszkanie 2 pokojowe w sercu Kazimierza,: Kazimierz,2.0,349 000 ,36.2,9641.0,https://www.otodom.pl/oferta/nowe-mieszkanie-2-pokojowe-w-sercu-kazimierza-ID3VdWu.html#2586a7ec49,2019-03-12 08:53:09.622957,Kazimierza,"Kraków, : Kazimierz, Kazimierza","Kazimierza Brodzińskiego, Podgórze, Kraków, województwo małopolskie, 30-506, Polska",dzielnica_ulica,"(50.0461323, 19.9487447, 0.0)",50.0461323,19.9487447,0.0
889,2 pokojowe  55 5 m2  Gotowe  Wola Duchacka,: Wola Duchacka,2.0,424 000 ,55.5,7640.0,https://www.otodom.pl/oferta/2-pokojowe-55-5-m2-gotowe-wola-duchacka-ID3VdWi.html#2586a7ec49,2019-03-12 08:53:09.622957,Duchacka,"Kraków, : Wola Duchacka, Duchacka","Kraków Bonarka, Kładka pieszo-rowerowa, Wola Duchacka, Podgórze Duchackie, Kraków, województwo małopolskie, 30-416, Polska",dzielnica_ulica,"(50.0293189, 19.9462275, 0.0)",50.0293189,19.9462275,0.0
890,1 Pokój Z Osobną Kuchnią W Centrum Nowej Huty!,: Nowa Huta,1.0,229 000 ,29.5,7763.0,https://www.otodom.pl/oferta/1-pokoj-z-osobna-kuchnia-w-centrum-nowej-huty-ID3VdS0.html#2586a7ec49,2019-03-12 08:53:09.622957,,"Kraków, : Nowa Huta, ","Nowa Huta, Kraków, województwo małopolskie, Polska",dzielnica_ulica,"(50.080618650000005, 20.129332198005237, 0.0)",50.080618650000005,20.129332198005237,0.0
893,Mistrzejowice 3 pokojowe  loggia  jasna kuchnia,: Mistrzejowice,3.0,335 000 ,60.0,5583.0,https://www.otodom.pl/oferta/mistrzejowice-3-pokojowe-loggia-jasna-kuchnia-ID3VdJG.html#2586a7ec49,2019-03-12 08:53:09.622957,Mistrzejowicka,"Kraków, : Mistrzejowice, Mistrzejowicka","Mistrzejowicka, Mistrzejowice, Kraków, województwo małopolskie, 31-638, Polska",dzielnica_ulica,"(50.094553, 20.0276976, 0.0)",50.094553,20.0276976,0.0
895,3   pokojowe  przestronne mieszkanie (Kapelanka),: Dębniki,3.0,550 000 ,63.0,8730.0,https://www.otodom.pl/oferta/3-pokojowe-przestronne-mieszkanie-kapelanka-ID3ViPq.html#89e33f6554,2019-03-13 08:59:53.986234,Kapelanka,"Kraków, : Dębniki, Kapelanka","Kapelanka, Osiedle Podwawelskie, Dębniki, Kraków, województwo małopolskie, 30-346, Polska",dzielnica_ulica,"(50.0434871, 19.9227043, 0.0)",50.0434871,19.9227043,0.0
902,7% w skali roku Krowodrza,: Krowodrza,4.0,689 000 ,93.0,7409.0,https://www.otodom.pl/oferta/7-w-skali-roku-krowodrza-ID3VkHa.html#89e33f6554,2019-03-13 08:59:53.986234,Krowoderska,"Kraków, : Krowodrza, Krowoderska","Krowoderska, Kleparz, Stare Miasto, Kraków, województwo małopolskie, 32-158, Polska",dzielnica_ulica,"(50.0723986, 19.9317322, 0.0)",50.0723986,19.9317322,0.0
907,Przejmij Najemców. Dobrze Płacą  2pok przy Agh Uj.,: Krowodrza,2.0,598 000 ,71.3,8387.0,https://www.otodom.pl/oferta/przejmij-najemcow-dobrze-placa-2pok-przy-agh-uj-ID3VkDS.html#89e33f6554,2019-03-13 08:59:53.986234,Dworzec,"Kraków, : Krowodrza, Dworzec","Dworzec Towarowy, Kleparz, Krowodrza, Kraków, województwo małopolskie, Polska",dzielnica_ulica,"(50.075916250000006, 19.940285103359784, 0.0)",50.075916250000006,19.940285103359784,0.0
908, Długa Ścisłe Centrum. 140m pod H el np:,: Śródmieście,4.0,1 350 000 ,139.17,9700.0,https://www.otodom.pl/oferta/ul-dluga-scisle-centrum-140m-pod-hostel-np-ID3VkDO.html#89e33f6554,2019-03-13 08:59:53.986234,,"Kraków, : Śródmieście, ","Śródmieście, Prądnik Czerwony, Kraków, województwo małopolskie, Polska",dzielnica_ulica,"(50.09244545, 19.981457132908645, 0.0)",50.09244545,19.981457132908645,0.0
913,2 pokoje Kraków Śródmieście,: Olsza,2.0,470 000 ,53.0,8868.0,https://www.otodom.pl/oferta/2-pokoje-krakow-srodmiescie-ID3Vkze.html#89e33f6554,2019-03-13 08:59:53.986234,,"Kraków, : Olsza, ","Olsza, Grzegórzki, Kraków, województwo małopolskie, Polska",dzielnica_ulica,"(50.0762116, 19.965045205731386, 0.0)",50.0762116,19.965045205731386,0.0
914,Nowoczesne jasne zadbane garaż Prądnik Czerwony,: Prądnik Czerwony,4.0,598 000 ,70.0,8543.0,https://www.otodom.pl/oferta/nowoczesne-jasne-zadbane-garaz-pradnik-czerwony-ID3VkxV.html#89e33f6554,2019-03-13 08:59:53.986234,Czerwona,"Kraków, : Prądnik Czerwony, Czerwona","Czerwona, Olsza II, Prądnik Czerwony, Kraków, województwo małopolskie, 31-424, Polska",dzielnica_ulica,"(50.0849372, 19.9554073, 0.0)",50.0849372,19.9554073,0.0
919,108m   Kazimierza Wielkiego  5/5. Niegłupie.,: Krowodrza,5.0,698 000 ,107.9,6469.0,https://www.otodom.pl/oferta/108m-ul-kazimierza-wielkiego-5-5-nieglupie-ID3Vkne.html#89e33f6554,2019-03-13 08:59:53.986234,Kazimierza,"Kraków, : Krowodrza, Kazimierza","Kazimierza Wielkiego, Łobzów, Krowodrza, Kraków, województwo małopolskie, 30-053, Polska",dzielnica_ulica,"(50.0747782, 19.9130924, 0.0)",50.0747782,19.9130924,0.0
920,2 pokojowe   Strzelców Śródmieście P.Czerwony.,: Prądnik Czerwony,2.0,268 000 ,32.03,8367.0,https://www.otodom.pl/oferta/2-pokojowe-ul-strzelcow-srodmiescie-p-czerwony-ID3Vkna.html#89e33f6554,2019-03-13 08:59:53.986234,Strzelców,"Kraków, : Prądnik Czerwony, Strzelców","Strzelców, Prądnik Czerwony, Kraków, województwo małopolskie, 31-422, Polska",dzielnica_ulica,"(50.0958852, 19.9742775, 0.0)",50.0958852,19.9742775,0.0
927,Chopina/ Szymanowskiego  90m2  4pok  II piętro !!!,: Stare Miasto,4.0,1 060 000 ,90.1,11765.0,https://www.otodom.pl/oferta/chopina-szymanowskiego-90m2-4pok-ii-pietro-ID3VgMY.html#3f7ebb237a,2019-03-13 08:59:54.767614,Chopina,"Kraków, : Stare Miasto, Chopina","Chopina, Czarnowiejska, Czarna Wieś, Krowodrza, Kraków, województwo małopolskie, 30-069, Polska",dzielnica_ulica,"(50.0675086, 19.9172663, 0.0)",50.0675086,19.9172663,0.0
933,2 pok. mieszkanie 50m2 Komuny Paryskiej,: Kobierzyn,2.0,379 000 ,50.0,7580.0,https://www.otodom.pl/oferta/2-pok-mieszkanie-50m2-komuny-paryskiej-ID3Vk5V.html#3f7ebb237a,2019-03-13 08:59:54.767614,Paryskiej,"Kraków, : Kobierzyn, Paryskiej","Komuny Paryskiej, Kobierzyn, Swoszowice, Kraków, województwo małopolskie, 30-389, Polska",dzielnica_ulica,"(49.9989124, 19.8947491, 0.0)",49.9989124,19.8947491,0.0
936,Bezpośrednio mieszkanie 47 52 poddasze  Bronowice,: Krowodrza,2.0,310 000 ,47.52,6524.0,https://www.otodom.pl/oferta/bezposrednio-mieszkanie-47-52-poddasze-bronowice-ID3VjSv.html#3f7ebb237a,2019-03-13 08:59:54.767614,Bronowicka,"Kraków, : Krowodrza, Bronowicka","Bronowicka, Łobzów, Krowodrza, Kraków, województwo małopolskie, 30-084, Polska",dzielnica_ulica,"(50.0759556, 19.90571, 0.0)",50.0759556,19.90571,0.0
937,Dąbie Kawalerka po remoncie balkon francuski,: małopolskie,1.0,235 000 ,25.0,9400.0,https://www.otodom.pl/oferta/dabie-kawalerka-po-remoncie-balkon-francuski-ID3VjLm.html#3f7ebb237a,2019-03-13 08:59:54.767614,,"Kraków, : małopolskie, ","Kraków, województwo małopolskie, Polska",dzielnica_ulica,"(50.0469432, 19.997153435836697, 0.0)",50.0469432,19.997153435836697,0.0
938,Ruczaj  3 pokojowe   nowe  taras,: Ruczaj,3.0,497 000 ,66.0,7530.0,https://www.otodom.pl/oferta/ruczaj-3-pokojowe-nowe-taras-ID3VjIE.html#3f7ebb237a,2019-03-13 08:59:54.767614,Ruczaj,"Kraków, : Ruczaj, Ruczaj","Ruczaj, Osiedle Ruczaj-Zaborze, Dębniki, Kraków, województwo małopolskie, 30-409, Polska",dzielnica_ulica,"(50.0259495, 19.9198508, 0.0)",50.0259495,19.9198508,0.0
941,3 pok.  Bieżanów  253906 ,: Bieżanów-Prokocim,2.0,283 700 ,55.09,5150.0,https://www.otodom.pl/oferta/3-pok-biezanow-253906-zl-ID3VjGc.html#3f7ebb237a,2019-03-13 08:59:54.767614,,"Kraków, : Bieżanów-Prokocim, ","Bieżanów-Prokocim, Kraków, województwo małopolskie, Polska",dzielnica_ulica,"(50.01706235, 20.022991856015395, 0.0)",50.01706235,20.022991856015395,0.0
942,3 pok.  Bieżanów  ocień,: Bieżanów-Prokocim,3.0,289 500 ,55.14,5250.0,https://www.otodom.pl/oferta/3-pok-biezanow-zlocien-ID3VjG8.html#3f7ebb237a,2019-03-13 08:59:54.767614,,"Kraków, : Bieżanów-Prokocim, ","Bieżanów-Prokocim, Kraków, województwo małopolskie, Polska",dzielnica_ulica,"(50.01706235, 20.022991856015395, 0.0)",50.01706235,20.022991856015395,0.0
