,opis,dzielnica,no_rooms,cena,flat_area,price,link,data,lokator_dzielnica,ulica,lokator_ulica,geo_location,rodzaj,point,latitude,longitude,altitude
1,Apartament u stóp Wawelu,: Stare Miasto,2.0,745 000 ,52.5,14190.0,https://www.otodom.pl/oferta/apartament-u-stop-wawelu-ID3Wbnu.html#89e33f6554,2019-03-07 15:26:00.407141,"Krakow , : Stare Miasto",Wawelu,Kraków Wawelu,"Bazylika archikatedralna pw. Świętych Stanisława i Wacława, 1, Zamek Królewski na Wawelu, Stare Miasto, Kraków, województwo małopolskie, 31-001, Polska",ulica,"(50.05465045, 19.935455391368265, 0.0)",50.05465045,19.935455391368265,0.0
7,Do remontu w niskiej zabudowie + ogródek!,: Stare Dębniki,2.0,286 000 ,35.6,8034.0,https://www.otodom.pl/oferta/do-remontu-w-niskiej-zabudowie-ogrodek-ID3WZOQ.html#89e33f6554,2019-03-07 15:26:00.408144,"Krakow , : Stare Dębniki",budowie,Kraków budowie,"Cmentarz komunalny w budowie, Dębniki, Kraków, województwo małopolskie, Polska",ulica,"(50.0000448, 19.842410046602595, 0.0)",50.0000448,19.842410046602595,0.0
12,Ostatnie Piętro 4pok.przy Łąkach Nowohuckich!,: Czyżyny,4.0,484 608 ,81.31,5960.0,https://www.otodom.pl/oferta/ostatnie-pietro-4pok-przy-lakach-nowohuckich-ID3WZN2.html#89e33f6554,2019-03-07 15:26:00.409147,"Krakow , : Czyżyny",Ostatnia,Kraków Ostatnia,"Ostatnia, Wieczysta, Prądnik Czerwony, Kraków, województwo małopolskie, 31-445, Polska",ulica,"(50.070786, 19.9766587, 0.0)",50.070786,19.9766587,0.0
13,Nowe 2 pokojowe 40m2  Głowackiego,: Bronowice Małe,2.0,370 000 ,40.3,9181.0,https://www.otodom.pl/oferta/nowe-2-pokojowe-40m2-ul-glowackiego-ID3WZI8.html#89e33f6554,2019-03-07 15:26:00.409147,"Krakow , : Bronowice Małe",Głowackiego,Kraków Głowackiego,"Głowackiego, Bronowicka, Łobzów, Krowodrza, Kraków, województwo małopolskie, 30-084, Polska",ulica,"(50.0758889, 19.9058459, 0.0)",50.0758889,19.9058459,0.0
23,3 pokoje wysoki standard Ugorek,: Ugorek,3.0,429 700 ,48.7,8823.0,https://www.otodom.pl/oferta/3-pokoje-wysoki-standard-ugorek-ID3WZoQ.html#89e33f6554,2019-03-07 15:26:00.410149,"Krakow , : Ugorek",Ugorek,Kraków Ugorek,"Ugorek, Prądnik Czerwony, Kraków, województwo małopolskie, Polska",ulica,"(50.0770309, 19.981480243513374, 0.0)",50.0770309,19.981480243513374,0.0
28,2 pokojowe z Ogródkiem  43m2  Wola Justowska,: Bronowice,2.0,416 000 ,43.0,9674.0,https://www.otodom.pl/oferta/2-pokojowe-z-ogrodkiem-43m2-wola-justowska-ID3WZ5V.html#89e33f6554,2019-03-07 15:26:00.410149,"Krakow , : Bronowice",Justowska,Kraków Justowska,"Justowska, Osiedle Widok Zarzecze, Bronowice, Kraków, województwo małopolskie, 30-138, Polska",ulica,"(50.0754855, 19.8840381, 0.0)",50.0754855,19.8840381,0.0
29,Pl. Bohaterów Getta  2 pokoje !!!,: Stare Podgórze,2.0,475 000 ,43.3,10970.0,https://www.otodom.pl/oferta/pl-bohaterow-getta-2-pokoje-ID3WZ4s.html#89e33f6554,2019-03-07 15:26:00.410149,"Krakow , : Stare Podgórze",Getta,Kraków Getta,"Plac Bohaterów Getta, Podgórze, Kraków, województwo małopolskie, Polska",ulica,"(50.0467232, 19.95438111538139, 0.0)",50.0467232,19.95438111538139,0.0
30,Kraków  Śródmieście  Olsza –  ca Idzikowskiego,: Śródmieście,2.0,290 000 ,25.09,11558.0,https://www.otodom.pl/oferta/krakow-srodmiescie-olsza-ulica-idzikowskiego-ID3WZ3G.html#89e33f6554,2019-03-07 15:26:00.411152,"Krakow , : Śródmieście",Idzikowskiego,Kraków Idzikowskiego,"Ludwika Idzikowskiego, Rakowice, Grzegórzki, Kraków, województwo małopolskie, 31-519, Polska",ulica,"(50.0768625, 19.9600088, 0.0)",50.0768625,19.9600088,0.0
34,Bezpośrednio   Kawalerka  Strusia 25m2,: Nowa Huta,1.0,228 000 ,25.0,9120.0,https://www.otodom.pl/oferta/bezposrednio-kawalerka-os-strusia-25m2-ID3WYIY.html#3f7ebb237a,2019-03-07 15:26:01.294507,"Krakow , : Nowa Huta",Strusia,Kraków Strusia,"Osiedle Józefa Strusia, Bieńczyce, Kraków, województwo małopolskie, Polska",ulica,"(50.08848715, 20.009869196375526, 0.0)",50.08848715,20.009869196375526,0.0
48,Z widokiem na Wawel  winda w kamienicy  antresola,: Kazimierz,1.0,390 000 ,30.0,13000.0,https://www.otodom.pl/oferta/z-widokiem-na-wawel-winda-w-kamienicy-antresola-ID3WYHa.html#3f7ebb237a,2019-03-07 15:26:01.296512,"Krakow , : Kazimierz",Wawelu,Kraków Wawelu,"Bazylika archikatedralna pw. Świętych Stanisława i Wacława, 1, Zamek Królewski na Wawelu, Stare Miasto, Kraków, województwo małopolskie, 31-001, Polska",ulica,"(50.05465045, 19.935455391368265, 0.0)",50.05465045,19.935455391368265,0.0
54,1 pok Agatowa 27m2 Nowe,: ocień,3.0,188 000 ,27.0,6963.0,https://www.otodom.pl/oferta/1-pok-agatowa-27m2-nowe-ID3WYvY.html#3f7ebb237a,2019-03-07 15:26:01.296512,"Krakow , : ocień",Agatowa,Kraków Agatowa,"Agatowa, Złocień, Bieżanów-Prokocim, Kraków, województwo małopolskie, 30-798, Polska",ulica,"(50.0201836, 20.0473713, 0.0)",50.0201836,20.0473713,0.0
56,3 pok. Agatowa,: ocień,3.0,275 000 ,49.0,5612.0,https://www.otodom.pl/oferta/3-pok-agatowa-ID3WYvQ.html#3f7ebb237a,2019-03-07 15:26:01.296512,"Krakow , : ocień",Agatowa,Kraków Agatowa,"Agatowa, Złocień, Bieżanów-Prokocim, Kraków, województwo małopolskie, 30-798, Polska",ulica,"(50.0201836, 20.0473713, 0.0)",50.0201836,20.0473713,0.0
57,Kapelanka 6a   high standard   parking place!,: Dębniki,2.0,545 000 ,49.8,10944.0,https://www.otodom.pl/oferta/kapelanka-6a-high-standard-parking-place-ID3WYuc.html#3f7ebb237a,2019-03-07 15:26:01.296512,"Krakow , : Dębniki",Kapelanka,Kraków Kapelanka,"Kapelanka, Osiedle Podwawelskie, Dębniki, Kraków, województwo małopolskie, 30-346, Polska",ulica,"(50.0434871, 19.9227043, 0.0)",50.0434871,19.9227043,0.0
59,Prokocim  3 pokoje,: Bieżanów-Prokocim,3.0,315 000 ,51.2,6152.0,https://www.otodom.pl/oferta/prokocim-3-pokoje-ID3WYmU.html#3f7ebb237a,2019-03-07 15:26:01.297515,"Krakow , : Bieżanów-Prokocim",Prokocimia,Kraków Prokocimia,"Prokocim, Bieżanów-Prokocim, Kraków, województwo małopolskie, Polska",ulica,"(50.0226748, 19.9921741, 0.0)",50.0226748,19.9921741,0.0
69,Apartamet w ścisłym Centrum Krakowa STARE MIASTO,: Stare Miasto,1.0,345 000 ,21.0,16429.0,https://www.otodom.pl/oferta/apartamet-w-scislym-centrum-krakowa-stare-miasto-ID3WYbe.html#85fbb29208,2019-03-07 15:26:02.253062,"Krakow , : Stare Miasto",Krakowa,Kraków Krakowa,"Muzeum Historyczne Miasta Krakowa Ulica Pomorska, 2, Pomorska, Nowa Wieś, Krowodrza, Kraków, województwo małopolskie, 30-039, Polska",ulica,"(50.0707757, 19.9248071, 0.0)",50.0707757,19.9248071,0.0
71,Mieszkanie w centrum Krakowa 69m2  3 pokoje,: Grzegórzki,3.0,600 000 ,69.0,8696.0,https://www.otodom.pl/oferta/mieszkanie-w-centrum-krakowa-69m2-3-pokoje-ID3WY68.html#85fbb29208,2019-03-07 15:26:02.254066,"Krakow , : Grzegórzki",Krakowa,Kraków Krakowa,"Muzeum Historyczne Miasta Krakowa Ulica Pomorska, 2, Pomorska, Nowa Wieś, Krowodrza, Kraków, województwo małopolskie, 30-039, Polska",ulica,"(50.0707757, 19.9248071, 0.0)",50.0707757,19.9248071,0.0
75,3 pokoje z Ogrodem w malowniczej okolicy Ruczaju,: Ruczaj,3.0,447 000 ,77.0,5805.0,https://www.otodom.pl/oferta/3-pokoje-z-ogrodem-w-malowniczej-okolicy-ruczaju-ID3WY5O.html#85fbb29208,2019-03-07 15:26:02.254066,"Krakow , : Ruczaj",Ogrodem,Kraków Ogrodem,"Za Ogrodem, Wadów, Wzgórza Krzesławickie, Kraków, województwo małopolskie, 31-990, Polska",ulica,"(50.0986422, 20.1175645, 0.0)",50.0986422,20.1175645,0.0
78,3 pokojowe mieszkanie   Zielone Bronowice,: Bronowice Wielkie,3.0,340 000 ,50.0,6800.0,https://www.otodom.pl/oferta/3-pokojowe-mieszkanie-zielone-bronowice-ID3WY4Q.html#85fbb29208,2019-03-07 15:26:02.254066,"Krakow , : Bronowice Wielkie",Zielona,Kraków Zielona,"Zielona, Wola Duchacka, Podgórze Duchackie, Kraków, województwo małopolskie, 30-623, Polska",ulica,"(50.020073, 19.9496437, 0.0)",50.020073,19.9496437,0.0
88,Obozowa  38m2  2 Pokoje  Balkon,: Borek Fałęcki,2.0,299 000 ,38.0,7868.0,https://www.otodom.pl/oferta/obozowa-38m2-2-pokoje-balkon-ID3WXEU.html#85fbb29208,2019-03-07 15:26:02.255068,"Krakow , : Borek Fałęcki",Obozowa,Kraków Obozowa,"Obozowa, Kobierzyn, Dębniki, Kraków, województwo małopolskie, 30-427, Polska",ulica,"(50.0151135, 19.9103087, 0.0)",50.0151135,19.9103087,0.0
99,2 pok. mieszkanie 33 mkw  Mistrzejowice,: Mistrzejowice,2.0,234 430 ,33.49,7000.0,https://www.otodom.pl/oferta/2-pok-mieszkanie-33-mkw-mistrzejowice-ID3WXlV.html#d245b9f81f,2019-03-07 15:26:03.120374,"Krakow , : Mistrzejowice",Mistrzejowicka,Kraków Mistrzejowicka,"Mistrzejowicka, Mistrzejowice, Kraków, województwo małopolskie, 31-638, Polska",ulica,"(50.094553, 20.0276976, 0.0)",50.094553,20.0276976,0.0
104,Dla Inwestora | Kazimierz | ROI 12 % | 135 m2,: Kazimierz,6.0,2 161 440 ,135.09,16000.0,https://www.otodom.pl/oferta/dla-inwestora-kazimierz-roi-12-135-m2-ID3WXfm.html#d245b9f81f,2019-03-07 15:26:03.121377,"Krakow , : Kazimierz",Kazimierza,Kraków Kazimierza,"Kościół pw. Świętego Kazimierza Królewicza, 4, Reformacka, Stare Miasto, Kraków, województwo małopolskie, 31-012, Polska",ulica,"(50.0648696, 19.936230887154693, 0.0)",50.0648696,19.936230887154693,0.0
105,Mieszkanie 3 pok. Prokocim  Bieżanów,: Bieżanów-Prokocim,3.0,480 000 ,63.0,7619.0,https://www.otodom.pl/oferta/mieszkanie-3-pok-prokocim-biezanow-ID3WXcM.html#d245b9f81f,2019-03-07 15:26:03.121377,"Krakow , : Bieżanów-Prokocim",Prokocimia,Kraków Prokocimia,"Prokocim, Bieżanów-Prokocim, Kraków, województwo małopolskie, Polska",ulica,"(50.0226748, 19.9921741, 0.0)",50.0226748,19.9921741,0.0
110,3 Pokojowe   29 Listopada   Pod Inwestycję  Okazja,: Śródmieście,3.0,499 000 ,63.0,7921.0,https://www.otodom.pl/oferta/3-pokojowe-29-listopada-pod-inwestycje-okazja-ID3WVIo.html#d245b9f81f,2019-03-07 15:26:03.121377,"Krakow , : Śródmieście",Listopada,Kraków Listopada,"Dekanat Kraków-Centrum, Aleja 29 Listopada, Warszawskie, Stare Miasto, Kraków, województwo małopolskie, 31-401, Polska",ulica,"(50.0660091, 19.936558555188547, 0.0)",50.0660091,19.936558555188547,0.0
111,2 Pokoje W Nowej Inwestycji Ul.Mogilska!,: Olsza,2.0,399 000 ,43.0,9279.0,https://www.otodom.pl/oferta/2-pokoje-w-nowej-inwestycji-ul-mogilska-ID3WVCY.html#d245b9f81f,2019-03-07 15:26:03.122380,"Krakow , : Olsza",Nowe,Kraków Nowe,"Kraków, województwo małopolskie, Polska",ulica,"(50.0469432, 19.997153435836697, 0.0)",50.0469432,19.997153435836697,0.0
112,2 Pokoje W Nowej Inwestycji Blisko Centrum,: Prądnik Biały,1.0,290 000 ,29.0,10000.0,https://www.otodom.pl/oferta/2-pokoje-w-nowej-inwestycji-blisko-centrum-ID3WVD2.html#d245b9f81f,2019-03-07 15:26:03.122380,"Krakow , : Prądnik Biały",Nowe,Kraków Nowe,"Kraków, województwo małopolskie, Polska",ulica,"(50.0469432, 19.997153435836697, 0.0)",50.0469432,19.997153435836697,0.0
113,2 pokojowe mieszkanie Wrocławska  Kraków,: Krowodrza,2.0,515 000 ,49.0,10510.0,https://www.otodom.pl/oferta/2-pokojowe-mieszkanie-wroclawska-krakow-ID3WVCM.html#d245b9f81f,2019-03-07 15:26:03.122380,"Krakow , : Krowodrza",Wrocławska,Kraków Wrocławska,"Wrocławska, Stara Krowodrza, Krowodrza, Kraków, województwo małopolskie, 30-024, Polska",ulica,"(50.0782971, 19.9236467, 0.0)",50.0782971,19.9236467,0.0
114,4 pokoje na Dauna do remontu,: Wola Duchacka,4.0,440 000 ,79.0,5570.0,https://www.otodom.pl/oferta/4-pokoje-na-dauna-do-remontu-ID3WVCI.html#d245b9f81f,2019-03-07 15:26:03.122380,"Krakow , : Wola Duchacka",Dauna,Kraków Dauna,"Dauna, Osiedle Kozłówek, Bieżanów-Prokocim, Kraków, województwo małopolskie, Polska",ulica,"(50.01928555, 19.977774026040873, 0.0)",50.01928555,19.977774026040873,0.0
116,3 pokojowe mieszkanie dla Ciebie Teligi  Bieżanów,: Bieżanów,3.0,349 000 ,51.2,6816.0,https://www.otodom.pl/oferta/3-pokojowe-mieszkanie-dla-ciebie-teligi-biezanow-ID3WVCE.html#d245b9f81f,2019-03-07 15:26:03.122380,"Krakow , : Bieżanów",Teligi,Kraków Teligi,"Teligi, Nowy Bieżanów, Bieżanów-Prokocim, Kraków, województwo małopolskie, Polska",ulica,"(50.0165281, 20.006306249999977, 0.0)",50.0165281,20.006306249999977,0.0
137,Okazja!4 pokoje 60 65m2 ok.  Piastowskiej,: małopolskie,4.0,489 000 ,60.65,8063.0,https://www.otodom.pl/oferta/okazja-4-pokoje-60-65m2-ok-ul-piastowskiej-ID3WVpm.html#2586a7ec49,2019-03-07 15:26:04.046845,"Krakow , : małopolskie",Piastowskie,Kraków Piastowskie,"Rondo Piastowskie, Osiedle Kombatantów, Mistrzejowice, Kraków, województwo małopolskie, Polska",ulica,"(50.09414185, 20.011108687106734, 0.0)",50.09414185,20.011108687106734,0.0
138,Okazja!4 pokoje 80m2   Fatimska Kraków,: Bieńczyce,4.0,379 000 ,79.7,4755.0,https://www.otodom.pl/oferta/okazja-4-pokoje-80m2-ul-fatimska-krakow-ID3WVo4.html#2586a7ec49,2019-03-07 15:26:04.046845,"Krakow , : Bieńczyce",Fatimska,Kraków Fatimska,"Fatimska, Bieńczyce, Kraków, województwo małopolskie, 31-831, Polska",ulica,"(50.0876121, 20.0298418, 0.0)",50.0876121,20.0298418,0.0
141,Kraków   Stare Miasto     Pawlikowskiego   40 m2,: Stare Miasto,2.0,399 000 ,40.0,9975.0,https://www.otodom.pl/oferta/krakow-stare-miasto-ul-pawlikowskiego-40-m2-ID3WVli.html#2586a7ec49,2019-03-07 15:26:04.047848,"Krakow , : Stare Miasto",Pawlikowskiego,Kraków Pawlikowskiego,"Tadeusza Pawlikowskiego, Piasek, Stare Miasto, Kraków, województwo małopolskie, 31-127, Polska",ulica,"(50.0678098, 19.9268383, 0.0)",50.0678098,19.9268383,0.0
160,2pok na Nowym Osiedlu z Pełną Infrastrukturą!,: małopolskie,2.0,208 000 ,34.12,6096.0,https://www.otodom.pl/oferta/2pok-na-nowym-osiedlu-z-pelna-infrastruktura-ID3WV7G.html#d5a755bd0e,2019-03-07 15:26:05.065561,"Krakow , : małopolskie",Nowy,Kraków Nowy,"Kraków, województwo małopolskie, Polska",ulica,"(50.0469432, 19.997153435836697, 0.0)",50.0469432,19.997153435836697,0.0
167,Sprzedam dwupokojowe mieszkanie  Bajeczna,: Grzegórzki,2.0,448 000 ,46.0,9739.0,https://www.otodom.pl/oferta/sprzedam-dwupokojowe-mieszkanie-bajeczna-ID3WV1m.html#d5a755bd0e,2019-03-07 15:26:05.066563,"Krakow , : Grzegórzki",Bajeczna,Kraków Bajeczna,"Bajeczna, Dąbie, Grzegórzki, Kraków, województwo małopolskie, 31-567, Polska",ulica,"(50.0574115, 19.9766744, 0.0)",50.0574115,19.9766744,0.0
170,Kawalerki na Nowym Osiedlu dla Inwestora! Sprawdź!,: małopolskie,1.0,176 000 ,27.0,6519.0,https://www.otodom.pl/oferta/kawalerki-na-nowym-osiedlu-dla-inwestora-sprawdz-ID3WWXy.html#d5a755bd0e,2019-03-07 15:26:05.066563,"Krakow , : małopolskie",Nowy,Kraków Nowy,"Kraków, województwo małopolskie, Polska",ulica,"(50.0469432, 19.997153435836697, 0.0)",50.0469432,19.997153435836697,0.0
172,Prądnik Czerwony  Strzelców   47m2 0% Prowizji,: Prądnik Czerwony,2.0,319 000 ,47.0,6787.0,https://www.otodom.pl/oferta/pradnik-czerwony-ul-strzelcow-47m2-0-prowizji-ID3WWWa.html#d5a755bd0e,2019-03-07 15:26:05.066563,"Krakow , : Prądnik Czerwony",Czerwona,Kraków Czerwona,"Czerwona, Olsza II, Prądnik Czerwony, Kraków, województwo małopolskie, 31-424, Polska",ulica,"(50.0849372, 19.9554073, 0.0)",50.0849372,19.9554073,0.0
175,Ok. Wrocławska  deweloperskie  19 01m2  1 pokój !!,: Krowodrza,1.0,190 100 ,19.01,10000.0,https://www.otodom.pl/oferta/ok-wroclawska-deweloperskie-19-01m2-1-pokoj-ID3WWRm.html#d5a755bd0e,2019-03-07 15:26:05.067566,"Krakow , : Krowodrza",Wrocławska,Kraków Wrocławska,"Wrocławska, Stara Krowodrza, Krowodrza, Kraków, województwo małopolskie, 30-024, Polska",ulica,"(50.0782971, 19.9236467, 0.0)",50.0782971,19.9236467,0.0
177,Kleparz  Ok. Wrocławska 36m2  2pok  II piętro  d,: Krowodrza,2.0,320 000 ,36.04,8879.0,https://www.otodom.pl/oferta/kleparz-ok-wroclawska-36m2-2pok-ii-pietro-d-ID3WWMA.html#d5a755bd0e,2019-03-07 15:26:05.067566,"Krakow , : Krowodrza",Wrocławska,Kraków Wrocławska,"Wrocławska, Stara Krowodrza, Krowodrza, Kraków, województwo małopolskie, 30-024, Polska",ulica,"(50.0782971, 19.9236467, 0.0)",50.0782971,19.9236467,0.0
190,2 lub 3 pokoje z jasną kuchnią Wadowicka aktualne,: Podgórze,2.0,399 000 ,45.0,8867.0,https://www.otodom.pl/oferta/2-lub-3-pokoje-z-jasna-kuchnia-wadowicka-aktualne-ID3WWyg.html#0c43dd2d44,2019-03-07 15:26:05.951924,"Krakow , : Podgórze",Wadowicka,Kraków Wadowicka,"Wadowicka, Mateczny, Podgórze, Kraków, województwo małopolskie, 30-415, Polska",ulica,"(50.0350632, 19.9397264, 0.0)",50.0350632,19.9397264,0.0
194,3 pokojowe na Krakowskim Kazimierzu,: Kazimierz,3.0,990 000 ,78.78,12567.0,https://www.otodom.pl/oferta/3-pokojowe-na-krakowskim-kazimierzu-ID3WWmg.html#0c43dd2d44,2019-03-07 15:26:05.952927,"Krakow , : Kazimierz",Krakowskich,Kraków Krakowskich,"Harcerzy Krakowskich, Kosocice, Swoszowice, Kraków, województwo małopolskie, 30-692, Polska",ulica,"(49.9980237, 19.9900703, 0.0)",49.9980237,19.9900703,0.0
195,3 pokojowe o fajnym układzie    Komuny Paryskiej,: Kliny-Zacisze,3.0,480 000 ,60.43,7943.0,https://www.otodom.pl/oferta/3-pokojowe-o-fajnym-ukladzie-ul-komuny-paryskiej-ID3WWlV.html#0c43dd2d44,2019-03-07 15:26:05.952927,"Krakow , : Kliny-Zacisze",Paryskiej,Kraków Paryskiej,"Komuny Paryskiej, Kobierzyn, Swoszowice, Kraków, województwo małopolskie, 30-389, Polska",ulica,"(49.9989124, 19.8947491, 0.0)",49.9989124,19.8947491,0.0
208,Apartamenty Dworska  Gotowe mieszkanie! Promocja!,: małopolskie,3.0,515 510 ,65.6,7858.0,https://www.otodom.pl/oferta/apartamenty-dworska-gotowe-mieszkanie-promocja-ID3B82A.html#4b28cb7416,2019-03-07 15:26:07.035813,"Krakow , : małopolskie",Dworska,Kraków Dworska,"Dworska, Osiedle Podwawelskie, Dębniki, Kraków, województwo małopolskie, 30-346, Polska",ulica,"(50.0439434, 19.9235038, 0.0)",50.0439434,19.9235038,0.0
228,Nowoczesny apartament na Kochanowskiego,: Stare Miasto,4.0,850 000 ,96.18,8838.0,https://www.otodom.pl/oferta/nowoczesny-apartament-na-kochanowskiego-ID3UAaA.html#4b28cb7416,2019-03-07 15:26:07.038821,"Krakow , : Stare Miasto",Kochanowskiego,Kraków Kochanowskiego,"Jana Kochanowskiego, Piasek, Stare Miasto, Kraków, województwo małopolskie, 31-127, Polska",ulica,"(50.0661357, 19.927934, 0.0)",50.0661357,19.927934,0.0
242,Tylko 5400 /m2  nowe  3  pokojowe   Opalowa,: Bieżanów-Prokocim,3.0,283 986 ,52.5,5409.0,https://www.otodom.pl/oferta/tylko-5400-zl-m2-nowe-3-pokojowe-ul-opalowa-ID3V3fS.html#89e33f6554,2019-03-08 11:46:14.283211,"Krakow , : Bieżanów-Prokocim",Opalowa,Kraków Opalowa,"Opalowa, Złocień, Bieżanów-Prokocim, Kraków, województwo małopolskie, 30-798, Polska",ulica,"(50.0213418, 20.0521586, 0.0)",50.0213418,20.0521586,0.0
243,Nowe  Tylko 4399 /m2   Opalowa,: Bieżanów-Prokocim,4.0,340 685 ,79.39,4291.0,https://www.otodom.pl/oferta/nowe-tylko-4399-zl-m2-ul-opalowa-ID3V3eU.html#89e33f6554,2019-03-08 11:46:14.298839,"Krakow , : Bieżanów-Prokocim",Opalowa,Kraków Opalowa,"Opalowa, Złocień, Bieżanów-Prokocim, Kraków, województwo małopolskie, 30-798, Polska",ulica,"(50.0213418, 20.0521586, 0.0)",50.0213418,20.0521586,0.0
244,Starowiślna  studio  pod najem krótkoterminowy,: Stare Miasto,1.0,408 000 ,28.42,14356.0,https://www.otodom.pl/oferta/starowislna-studio-pod-najem-krotkoterminowy-ID3V3aA.html#89e33f6554,2019-03-08 11:46:14.298839,"Krakow , : Stare Miasto",Starowiślna,Kraków Starowiślna,"Starowiślna, Kazimierz, Stare Miasto, Kraków, województwo małopolskie, 31-038, Polska",ulica,"(50.0560672, 19.9457877, 0.0)",50.0560672,19.9457877,0.0
247,Mieszkanie Dla Rodziny  106 m2  Ostatnie Piętro,: Grzegórzki,4.0,1 057 000 ,106.79,9898.0,https://www.otodom.pl/oferta/mieszkanie-dla-rodziny-106-m2-ostatnie-pietro-ID3V36s.html#89e33f6554,2019-03-08 11:46:14.298839,"Krakow , : Grzegórzki",Rodziny,Kraków Rodziny,"Katolickie Szkoły im.Świętej Rodziny z Nazaretu, Pędzichów, Kleparz, Stare Miasto, Kraków, województwo małopolskie, 31-152, Polska",ulica,"(50.06999585, 19.94018479506805, 0.0)",50.06999585,19.94018479506805,0.0
252,Kawalerka 25 m2 Osiedle Strusia,: Bieńczyce,2.0,229 000 ,25.0,9160.0,https://www.otodom.pl/oferta/kawalerka-25-m2-osiedle-strusia-ID3V32o.html#89e33f6554,2019-03-08 11:46:14.298839,"Krakow , : Bieńczyce",Osiedle,Kraków Osiedle,"Osiedle, Łęg, Czyżyny, Kraków, województwo małopolskie, 31-587, Polska",ulica,"(50.0572333, 20.0151003, 0.0)",50.0572333,20.0151003,0.0
256,Okazja!3 pokoje  R. Matecznego  Bez PCC i prowizji,: Podgórze,3.0,359 000 ,45.0,7978.0,https://www.otodom.pl/oferta/okazja-3-pokoje-r-matecznego-bez-pcc-i-prowizji-ID3V316.html#89e33f6554,2019-03-08 11:46:14.298839,"Krakow , : Podgórze",Matecznego,Kraków Matecznego,"Rondo Antoniego Matecznego, Podgórze, Kraków, województwo małopolskie, 30-524, Polska",ulica,"(50.0365341, 19.9408678, 0.0)",50.0365341,19.9408678,0.0
258,Kraków Sw owice Lasogórska 2pok. 43 4m2 +Ogródek,: Swoszowice,2.0,320 000 ,43.4,7373.0,https://www.otodom.pl/oferta/krakow-swoszowice-lasogorska-2pok-43-4m2-ogrodek-ID3V2Qc.html#89e33f6554,2019-03-08 11:46:14.298839,"Krakow , : Swoszowice",Lasogórska,Kraków Lasogórska,"Lasogórska, Łysa Góra, Swoszowice, Kraków, województwo małopolskie, 30-434, Polska",ulica,"(49.9919895, 19.9290698, 0.0)",49.9919895,19.9290698,0.0
260,3 pokoje Kraków Mistrzejowice,: Mistrzejowice,3.0,439 000 ,56.4,7784.0,https://www.otodom.pl/oferta/3-pokoje-krakow-mistrzejowice-ID3V2hq.html#89e33f6554,2019-03-08 11:46:14.298839,"Krakow , : Mistrzejowice",Mistrzejowicka,Kraków Mistrzejowicka,"Mistrzejowicka, Mistrzejowice, Kraków, województwo małopolskie, 31-638, Polska",ulica,"(50.094553, 20.0276976, 0.0)",50.094553,20.0276976,0.0
273,Piękne duże mieszkanie na Os. 2 Pułku Lotniczego,: Nowa Huta,3.0,472 000 ,65.0,7262.0,https://www.otodom.pl/oferta/piekne-duze-mieszkanie-na-os-2-pulku-lotniczego-ID3V1Yo.html#3f7ebb237a,2019-03-08 11:46:15.196273,"Krakow , : Nowa Huta",Lotniczego,Kraków Lotniczego,"Osiedle 2. Pułku Lotniczego, Czyżyny, Kraków, województwo małopolskie, Polska",ulica,"(50.077365900000004, 20.008722110064895, 0.0)",50.077365900000004,20.008722110064895,0.0
274,3 pokojowe mieszkanie na Os. Strusia   okazja,: Nowa Huta,3.0,329 000 ,46.0,7152.0,https://www.otodom.pl/oferta/3-pokojowe-mieszkanie-na-os-strusia-okazja-ID3V1Yc.html#3f7ebb237a,2019-03-08 11:46:15.196273,"Krakow , : Nowa Huta",Strusia,Kraków Strusia,"Osiedle Józefa Strusia, Bieńczyce, Kraków, województwo małopolskie, Polska",ulica,"(50.08848715, 20.009869196375526, 0.0)",50.08848715,20.009869196375526,0.0
278,Stare Podgórze  2 pok po remoncie obok Kopca Kraka,: Stare Podgórze,2.0,295 000 ,38.0,7763.0,https://www.otodom.pl/oferta/stare-podgorze-2-pok-po-remoncie-obok-kopca-kraka-ID3V1VY.html#3f7ebb237a,2019-03-08 11:46:15.196273,"Krakow , : Stare Podgórze",Kopca,Kraków Kopca,"Kopiec Kościuszki, Plac Paula McCartney'a, Zwierzyniec, Kraków, województwo małopolskie, 30-210, Polska",ulica,"(50.0549163, 19.8933483, 0.0)",50.0549163,19.8933483,0.0
280,3 niezależne pokoje   Ruczaj   Jahody,: Ruczaj,3.0,420 000 ,60.0,7000.0,https://www.otodom.pl/oferta/3-niezalezne-pokoje-ruczaj-jahody-ID3V1TK.html#3f7ebb237a,2019-03-08 11:46:15.196273,"Krakow , : Ruczaj",Ruczaj,Kraków Ruczaj,"Ruczaj, Osiedle Ruczaj-Zaborze, Łagiewniki-Borek Fałęcki, Kraków, województwo małopolskie, 30-410, Polska",ulica,"(50.0250823, 19.9239263, 0.0)",50.0250823,19.9239263,0.0
283,Dwupoziomowe mieszkanie  Ruczaj Kraków,: małopolskie,3.0,370 000 ,60.0,6167.0,https://www.otodom.pl/oferta/dwupoziomowe-mieszkanie-ruczaj-krakow-ID3V1Fe.html#3f7ebb237a,2019-03-08 11:46:15.196273,"Krakow , : małopolskie",Ruczaj,Kraków Ruczaj,"Ruczaj, Osiedle Ruczaj-Zaborze, Łagiewniki-Borek Fałęcki, Kraków, województwo małopolskie, 30-410, Polska",ulica,"(50.0250823, 19.9239263, 0.0)",50.0250823,19.9239263,0.0
298,kawalerka dla Ciebie! Ruczaj Obozowa.,: Ruczaj,1.0,299 000 ,38.0,7868.0,https://www.otodom.pl/oferta/kawalerka-dla-ciebie-ruczaj-obozowa-ID3V1xa.html#85fbb29208,2019-03-08 11:46:15.883863,"Krakow , : Ruczaj",Ruczaj,Kraków Ruczaj,"Ruczaj, Osiedle Ruczaj-Zaborze, Łagiewniki-Borek Fałęcki, Kraków, województwo małopolskie, 30-410, Polska",ulica,"(50.0250823, 19.9239263, 0.0)",50.0250823,19.9239263,0.0
299,3 pokojowe mieszkanie  Hutnicze Nowa Huta,: Nowa Huta,3.0,315 000 ,38.0,8289.0,https://www.otodom.pl/oferta/3-pokojowe-mieszkanie-os-hutnicze-nowa-huta-ID3V1xe.html#85fbb29208,2019-03-08 11:46:15.883863,"Krakow , : Nowa Huta",Hutnicze,Kraków Hutnicze,"Osiedle Hutnicze, Nowa Huta, Kraków, województwo małopolskie, Polska",ulica,"(50.0727517, 20.0454692, 0.0)",50.0727517,20.0454692,0.0
303,2 pok.mieszkanie /panorama Krakowa z okien / 2016r,: Zabłocie,2.0,427 500 ,40.28,10613.0,https://www.otodom.pl/oferta/2-pok-mieszkanie-panorama-krakowa-z-okien-2016r-ID3V1ti.html#85fbb29208,2019-03-08 11:46:15.883863,"Krakow , : Zabłocie",Krakowa,Kraków Krakowa,"Muzeum Historyczne Miasta Krakowa Ulica Pomorska, 2, Pomorska, Nowa Wieś, Krowodrza, Kraków, województwo małopolskie, 30-039, Polska",ulica,"(50.0707757, 19.9248071, 0.0)",50.0707757,19.9248071,0.0
304,1 pokojowe  28 5m2  Kazimierz    Miodowa,: Kazimierz,1.0,380 000 ,28.5,13333.0,https://www.otodom.pl/oferta/1-pokojowe-28-5m2-kazimierz-ul-miodowa-ID3V1tm.html#85fbb29208,2019-03-08 11:46:15.883863,"Krakow , : Kazimierz",Kazimierza,Kraków Kazimierza,"Kościół pw. Świętego Kazimierza Królewicza, 4, Reformacka, Stare Miasto, Kraków, województwo małopolskie, 31-012, Polska",ulica,"(50.0648696, 19.936230887154693, 0.0)",50.0648696,19.936230887154693,0.0
305,ok. Wielopole   Kamienica po Remoncie !!,: Stare Miasto,2.0,412 000 ,44.5,9258.0,https://www.otodom.pl/oferta/ok-wielopole-kamienica-po-remoncie-ID3V1re.html#85fbb29208,2019-03-08 11:46:15.883863,"Krakow , : Stare Miasto",Wielopole,Kraków Wielopole,"Wielopole, Wesoła, Stare Miasto, Kraków, województwo małopolskie, 30-020, Polska",ulica,"(50.0586425, 19.9479114, 0.0)",50.0586425,19.9479114,0.0
307,Superluksusowy apartament w Pałacu Dunajewskiego!,: Stare Miasto,3.0,1 550 000 ,100.0,15500.0,https://www.otodom.pl/oferta/superluksusowy-apartament-w-palacu-dunajewskiego-ID3V1pS.html#85fbb29208,2019-03-08 11:46:15.883863,"Krakow , : Stare Miasto",Dunajewskiego,Kraków Dunajewskiego,"Juliana Dunajewskiego, Piasek, Stare Miasto, Kraków, województwo małopolskie, 31-133, Polska",ulica,"(50.0646658, 19.9343599, 0.0)",50.0646658,19.9343599,0.0
315,Mieszkanie dwupokojowe przy  Wielkotyrnowskiej,: Azory,2.0,305 000 ,43.0,7093.0,https://www.otodom.pl/oferta/mieszkanie-dwupokojowe-przy-ul-wielkotyrnowskiej-ID3V0Xm.html#85fbb29208,2019-03-08 11:46:15.883863,"Krakow , : Azory",Wielkotyrnowska,Kraków Wielkotyrnowska,"Wielkotyrnowska, Osiedle Azory, Prądnik Biały, Kraków, województwo małopolskie, 31-326, Polska",ulica,"(50.0879992, 19.9148834, 0.0)",50.0879992,19.9148834,0.0
324,4 pokojowe mieszkanie Bociana   Prądnik Biały 2016,: Prądnik Biały,4.0,525 000 ,73.0,7192.0,https://www.otodom.pl/oferta/4-pokojowe-mieszkanie-bociana-pradnik-bialy-2016-ID3V0SM.html#d245b9f81f,2019-03-08 11:46:16.678588,"Krakow , : Prądnik Biały",Bociana,Kraków Bociana,"Bociana, Prądnik Biały, Kraków, województwo małopolskie, 31-232, Polska",ulica,"(50.0941971, 19.9566853, 0.0)",50.0941971,19.9566853,0.0
329,Mieszkanie Na Kameralnym Osiedlu spokojna okolica!,: Opatkowice,5.0,479 000 ,96.72,4952.0,https://www.otodom.pl/oferta/mieszkanie-na-kameralnym-osiedlu-spokojna-okolica-ID3V0I0.html#d245b9f81f,2019-03-08 11:46:16.678588,"Krakow , : Opatkowice",Osiedle,Kraków Osiedle,"Osiedle, Łęg, Czyżyny, Kraków, województwo małopolskie, 31-587, Polska",ulica,"(50.0572333, 20.0151003, 0.0)",50.0572333,20.0151003,0.0
330,Mieszkanie Na Kameralnym Osiedlu spokojna okolica!,: Opatkowice,7.0,519 000 ,100.0,5190.0,https://www.otodom.pl/oferta/mieszkanie-na-kameralnym-osiedlu-spokojna-okolica-ID3V0I4.html#d245b9f81f,2019-03-08 11:46:16.678588,"Krakow , : Opatkowice",Osiedle,Kraków Osiedle,"Osiedle, Łęg, Czyżyny, Kraków, województwo małopolskie, 31-587, Polska",ulica,"(50.0572333, 20.0151003, 0.0)",50.0572333,20.0151003,0.0
332,Nowe 2pokoje 38 4m2   Ojcowska,: Bronowice Wielkie,2.0,255 360 ,38.4,6650.0,https://www.otodom.pl/oferta/nowe-2pokoje-38-4m2-ul-ojcowska-ID3V0He.html#d245b9f81f,2019-03-08 11:46:16.678588,"Krakow , : Bronowice Wielkie",Ojcowska,Kraków Ojcowska,"Ojcowska, Bronowice Wielkie, Prądnik Biały, Kraków, województwo małopolskie, 31-347, Polska",ulica,"(50.1070761, 19.8792261, 0.0)",50.1070761,19.8792261,0.0
333,Kawalerka Z Widokiem Na Wawel  Dębniki  Szwedzka,: Dębniki,1.0,345 000 ,31.35,11005.0,https://www.otodom.pl/oferta/kawalerka-z-widokiem-na-wawel-debniki-szwedzka-ID3V0GI.html#d245b9f81f,2019-03-08 11:46:16.678588,"Krakow , : Dębniki",Wawelu,Kraków Wawelu,"Bazylika archikatedralna pw. Świętych Stanisława i Wacława, 1, Zamek Królewski na Wawelu, Stare Miasto, Kraków, województwo małopolskie, 31-001, Polska",ulica,"(50.05465045, 19.935455391368265, 0.0)",50.05465045,19.935455391368265,0.0
337,3pokoje 75m2 360000 Śródmiescie Dobrego Pasterza,: Prądnik Czerwony,3.0,360 000 ,74.8,4813.0,https://www.otodom.pl/oferta/3pokoje-75m2-360000zl-srodmiescie-dobrego-pasterza-ID3V0z2.html#d245b9f81f,2019-03-08 11:46:16.678588,"Krakow , : Prądnik Czerwony",Pasterza,Kraków Pasterza,"Kościół pw. Pana Jezusa Dobrego Pasterza, 4, Dobrego Pasterza, Prądnik Czerwony, Kraków, województwo małopolskie, 31-416, Polska",ulica,"(50.08851445, 19.95839608107648, 0.0)",50.08851445,19.95839608107648,0.0
338,2 pokoje z dużym balkonem   Wola Duchacka / Zabawa,: Wola Duchacka,2.0,355 000 ,45.0,7889.0,https://www.otodom.pl/oferta/2-pokoje-z-duzym-balkonem-wola-duchacka-zabawa-ID3V0vg.html#d245b9f81f,2019-03-08 11:46:16.678588,"Krakow , : Wola Duchacka",Duchacka,Kraków Duchacka,"Duchacka, Olsza II, Prądnik Czerwony, Kraków, województwo małopolskie, 31-426, Polska",ulica,"(50.0842566, 19.9535619, 0.0)",50.0842566,19.9535619,0.0
339,nowe mieszkanie 2 pokojowe  ca Szwai  Ruczaj,: Podgórze,2.0,332 000 ,40.3,8238.0,https://www.otodom.pl/oferta/nowe-mieszkanie-2-pokojowe-ulica-szwai-ruczaj-ID3V0wG.html#d245b9f81f,2019-03-08 11:46:16.678588,"Krakow , : Podgórze",Ruczaj,Kraków Ruczaj,"Ruczaj, Osiedle Ruczaj-Zaborze, Łagiewniki-Borek Fałęcki, Kraków, województwo małopolskie, 30-410, Polska",ulica,"(50.0250823, 19.9239263, 0.0)",50.0250823,19.9239263,0.0
342,Mieszkanie Na Kameralnym Osiedlu spokojna okolica!,: Opatkowice,3.0,319 000 ,54.44,5860.0,https://www.otodom.pl/oferta/mieszkanie-na-kameralnym-osiedlu-spokojna-okolica-ID3V0u8.html#d245b9f81f,2019-03-08 11:46:16.678588,"Krakow , : Opatkowice",Osiedle,Kraków Osiedle,"Osiedle, Łęg, Czyżyny, Kraków, województwo małopolskie, 31-587, Polska",ulica,"(50.0572333, 20.0151003, 0.0)",50.0572333,20.0151003,0.0
358,Apartament 30m2 pod krótki najem centrum Krakowa,: Stare Miasto,1.0,429 000 ,29.9,14348.0,https://www.otodom.pl/oferta/apartament-30m2-pod-krotki-najem-centrum-krakowa-ID3V0oA.html#2586a7ec49,2019-03-08 11:46:17.600566,"Krakow , : Stare Miasto",Krakowa,Kraków Krakowa,"Muzeum Historyczne Miasta Krakowa Ulica Pomorska, 2, Pomorska, Nowa Wieś, Krowodrza, Kraków, województwo małopolskie, 30-039, Polska",ulica,"(50.0707757, 19.9248071, 0.0)",50.0707757,19.9248071,0.0
362,Duze 4 pok.mieszkanie  Tuchowska nowe budownictw,: Kurdwanów,4.0,538 000 ,76.8,7005.0,https://www.otodom.pl/oferta/duze-4-pok-mieszkanie-ul-tuchowska-nowe-budownictw-ID3V0eQ.html#2586a7ec49,2019-03-08 11:46:17.600566,"Krakow , : Kurdwanów",Tuchowska,Kraków Tuchowska,"Tuchowska, Rajsko, Swoszowice, Kraków, województwo małopolskie, 30-699, Polska",ulica,"(49.9900446, 19.9728983, 0.0)",49.9900446,19.9728983,0.0
365,Trzypokojowe mieszkanie na Ruczaju.,: Ruczaj,3.0,400 992 ,56.08,7150.0,https://www.otodom.pl/oferta/trzypokojowe-mieszkanie-na-ruczaju-ID3V02v.html#2586a7ec49,2019-03-08 11:46:17.600566,"Krakow , : Ruczaj",Ruczaj,Kraków Ruczaj,"Ruczaj, Osiedle Ruczaj-Zaborze, Łagiewniki-Borek Fałęcki, Kraków, województwo małopolskie, 30-410, Polska",ulica,"(50.0250823, 19.9239263, 0.0)",50.0250823,19.9239263,0.0
366,Trzypokojowe mieszkanie na Ruczaju.,: Ruczaj,3.0,420 600 ,56.08,7500.0,https://www.otodom.pl/oferta/trzypokojowe-mieszkanie-na-ruczaju-ID3V02s.html#2586a7ec49,2019-03-08 11:46:17.600566,"Krakow , : Ruczaj",Ruczaj,Kraków Ruczaj,"Ruczaj, Osiedle Ruczaj-Zaborze, Łagiewniki-Borek Fałęcki, Kraków, województwo małopolskie, 30-410, Polska",ulica,"(50.0250823, 19.9239263, 0.0)",50.0250823,19.9239263,0.0
367,Nowe mieszkania na Ruczaju.,: Ruczaj,1.0,273 711 ,34.84,7856.0,https://www.otodom.pl/oferta/nowe-mieszkania-na-ruczaju-ID3V02o.html#2586a7ec49,2019-03-08 11:46:17.600566,"Krakow , : Ruczaj",Ruczaj,Kraków Ruczaj,"Ruczaj, Osiedle Ruczaj-Zaborze, Łagiewniki-Borek Fałęcki, Kraków, województwo małopolskie, 30-410, Polska",ulica,"(50.0250823, 19.9239263, 0.0)",50.0250823,19.9239263,0.0
369,Jesionowa  Zarudawie/Okol/Z Dużym Tarasem !!!,: Wola Justowska,3.0,649 000 ,71.4,9090.0,https://www.otodom.pl/oferta/jesionowa-zarudawie-okol-z-duzym-tarasem-ID3V01a.html#2586a7ec49,2019-03-08 11:46:17.600566,"Krakow , : Wola Justowska",Jesionowa,Kraków Jesionowa,"Jesionowa, Bronowice Małe, Bronowice, Kraków, województwo małopolskie, 30-146, Polska",ulica,"(50.070148, 19.8764808, 0.0)",50.070148,19.8764808,0.0
372,3 pokojowe mieszkanie dla rodziny i pod inwestycję,: Prądnik Biały,3.0,428 000 ,64.0,6688.0,https://www.otodom.pl/oferta/3-pokojowe-mieszkanie-dla-rodziny-i-pod-inwestycje-ID3WZUA.html#2586a7ec49,2019-03-08 11:46:17.600566,"Krakow , : Prądnik Biały",Rodziny,Kraków Rodziny,"Katolickie Szkoły im.Świętej Rodziny z Nazaretu, Pędzichów, Kleparz, Stare Miasto, Kraków, województwo małopolskie, 31-152, Polska",ulica,"(50.06999585, 19.94018479506805, 0.0)",50.06999585,19.94018479506805,0.0
373,3 pok mieszkanie inwestycyjne Wrocławska,: Łobzów,3.0,538 000 ,64.0,8406.0,https://www.otodom.pl/oferta/3-pok-mieszkanie-inwestycyjne-wroclawska-ID3WZUs.html#2586a7ec49,2019-03-08 11:46:17.600566,"Krakow , : Łobzów",Wrocławska,Kraków Wrocławska,"Wrocławska, Stara Krowodrza, Krowodrza, Kraków, województwo małopolskie, 30-024, Polska",ulica,"(50.0782971, 19.9236467, 0.0)",50.0782971,19.9236467,0.0
378,Nowe 2 pokojowe 38 5 m2   Wrocławska,: Łobzów,2.0,350 000 ,38.5,9091.0,https://www.otodom.pl/oferta/nowe-2-pokojowe-38-5-m2-ul-wroclawska-ID3WZUk.html#d5a755bd0e,2019-03-08 11:46:18.354613,"Krakow , : Łobzów",Wrocławska,Kraków Wrocławska,"Wrocławska, Stara Krowodrza, Krowodrza, Kraków, województwo małopolskie, 30-024, Polska",ulica,"(50.0782971, 19.9236467, 0.0)",50.0782971,19.9236467,0.0
423,Bezpośrednio dom poniżej ceny mieszkania  Kwartowa,: Prądnik Czerwony,4.0,688 500 ,115.4,5966.0,https://www.otodom.pl/oferta/bezposrednio-dom-ponizej-ceny-mieszkania-kwartowa-ID3WReU.html#4b28cb7416,2019-03-08 11:46:20.185359,"Krakow , : Prądnik Czerwony",Karowa,Kraków Karowa,"Karowa, Kopaniny, Nowa Huta, Kraków, województwo małopolskie, 31-983, Polska",ulica,"(50.0595631, 20.1054111, 0.0)",50.0595631,20.1054111,0.0
430,klimatyczne poddasze na Azorach   Zygmuntowska,: Azory,1.0,315 000 ,47.98,6565.0,https://www.otodom.pl/oferta/klimatyczne-poddasze-na-azorach-ul-zygmuntowska-ID3Efb6.html#4b28cb7416,2019-03-08 11:46:20.185359,"Krakow , : Azory",Zygmuntowska,Kraków Zygmuntowska,"Zygmuntowska, Azory, Prądnik Biały, Kraków, województwo małopolskie, 31-314, Polska",ulica,"(50.0855556, 19.9075636, 0.0)",50.0855556,19.9075636,0.0
441,PIĘKNE! URZĄDZONE 2 oddzielne pokoje  Bieńczycka,: Czyżyny,2.0,345 000 ,41.42,8329.0,https://www.otodom.pl/oferta/piekne-urzadzone-2-oddzielne-pokoje-ul-bienczycka-ID3ineC.html#4b28cb7416,2019-03-08 11:46:20.185359,"Krakow , : Czyżyny",Bieńczycka,Kraków Bieńczycka,"Bieńczycka, Nowa Huta, Kraków, województwo małopolskie, 31-944, Polska",ulica,"(50.0790179, 20.0262802, 0.0)",50.0790179,20.0262802,0.0
446, Wrocławska Trzypokojowe  Przepiękne Mieszkanie,: Krowodrza,3.0,497 500 ,49.88,9974.0,https://www.otodom.pl/oferta/ul-wroclawska-trzypokojowe-przepiekne-mieszkanie-ID3WyXO.html#4b28cb7416,2019-03-08 11:46:20.185359,"Krakow , : Krowodrza",Wrocławska,Kraków Wrocławska,"Wrocławska, Stara Krowodrza, Krowodrza, Kraków, województwo małopolskie, 30-024, Polska",ulica,"(50.0782971, 19.9236467, 0.0)",50.0782971,19.9236467,0.0
449,Domy Szeregowe Tyniecka,: małopolskie,4.0,662 445 ,147.21,4500.0,https://www.otodom.pl/oferta/domy-szeregowe-tyniecka-ID3RTzG.html#4b28cb7416,2019-03-08 11:46:21.091730,"Krakow , : małopolskie",Tyniecki,Kraków Tyniecki,"Tyniecki, 160, Tyniecka, Kostrze, Dębniki, Kraków, województwo małopolskie, 30-381, Polska",ulica,"(50.02706945, 19.844293646524815, 0.0)",50.02706945,19.844293646524815,0.0
457,Polecam Olsza Wieniawskiego  36 50m2  2 pok.loggia,: Olsza,2.0,292 000 ,36.5,8000.0,https://www.otodom.pl/oferta/polecam-olsza-wieniawskiego-36-50m2-2-pok-loggia-ID3Vb0A.html#24f2434338,2019-03-11 07:59:18.877872,"Krakow , : Olsza",Wieniawskiego,Kraków Wieniawskiego,"Henryka Wieniawskiego, Olsza II, Prądnik Czerwony, Kraków, województwo małopolskie, 31-436, Polska",ulica,"(50.0818138, 19.9640072, 0.0)",50.0818138,19.9640072,0.0
460,Nowa inwestycja  dwupoziomowy apartament z ogrodem,: Bronowice Małe,4.0,699 000 ,96.14,7271.0,https://www.otodom.pl/oferta/nowa-inwestycja-dwupoziomowy-apartament-z-ogrodem-ID3Vazq.html#24f2434338,2019-03-11 07:59:18.877872,"Krakow , : Bronowice Małe",Ogrodem,Kraków Ogrodem,"Za Ogrodem, Wadów, Wzgórza Krzesławickie, Kraków, województwo małopolskie, 31-990, Polska",ulica,"(50.0986422, 20.1175645, 0.0)",50.0986422,20.1175645,0.0
463,Kameralne Miejsce Blisko Zieleni   Wysoki Standard,: Krowodrza,2.0,390 000 ,48.0,8125.0,https://www.otodom.pl/oferta/kameralne-miejsce-blisko-zieleni-wysoki-standard-ID3VajC.html#24f2434338,2019-03-11 07:59:18.877872,"Krakow , : Krowodrza",Zieleniec,Kraków Zieleniec,"Zieleniec, Prokocim, Bieżanów-Prokocim, Kraków, województwo małopolskie, 30-663, Polska",ulica,"(50.0207129, 19.9847495, 0.0)",50.0207129,19.9847495,0.0
464,Kameralne Miejsce Blisko Zieleni   Wysoki Standard,: Krowodrza,2.0,427 000 ,57.0,7491.0,https://www.otodom.pl/oferta/kameralne-miejsce-blisko-zieleni-wysoki-standard-ID3VajG.html#24f2434338,2019-03-11 07:59:18.877872,"Krakow , : Krowodrza",Zieleniec,Kraków Zieleniec,"Zieleniec, Prokocim, Bieżanów-Prokocim, Kraków, województwo małopolskie, 30-663, Polska",ulica,"(50.0207129, 19.9847495, 0.0)",50.0207129,19.9847495,0.0
465,Kameralne Miejsce Blisko Zieleni   Wysoki Standard,: Krowodrza,2.0,457 000 ,63.0,7254.0,https://www.otodom.pl/oferta/kameralne-miejsce-blisko-zieleni-wysoki-standard-ID3Vajy.html#24f2434338,2019-03-11 07:59:18.877872,"Krakow , : Krowodrza",Zieleniec,Kraków Zieleniec,"Zieleniec, Prokocim, Bieżanów-Prokocim, Kraków, województwo małopolskie, 30-663, Polska",ulica,"(50.0207129, 19.9847495, 0.0)",50.0207129,19.9847495,0.0
466,Kameralne Miejsce Blisko Zieleni   Wysoki Standard,: Krowodrza,2.0,316 000 ,40.4,7822.0,https://www.otodom.pl/oferta/kameralne-miejsce-blisko-zieleni-wysoki-standard-ID3Vajq.html#24f2434338,2019-03-11 07:59:18.877872,"Krakow , : Krowodrza",Zieleniec,Kraków Zieleniec,"Zieleniec, Prokocim, Bieżanów-Prokocim, Kraków, województwo małopolskie, 30-663, Polska",ulica,"(50.0207129, 19.9847495, 0.0)",50.0207129,19.9847495,0.0
467,Kameralne Miejsce Blisko Zieleni   Wysoki Standard,: Krowodrza,1.0,319 000 ,38.0,8395.0,https://www.otodom.pl/oferta/kameralne-miejsce-blisko-zieleni-wysoki-standard-ID3Vajm.html#24f2434338,2019-03-11 07:59:18.877872,"Krakow , : Krowodrza",Zieleniec,Kraków Zieleniec,"Zieleniec, Prokocim, Bieżanów-Prokocim, Kraków, województwo małopolskie, 30-663, Polska",ulica,"(50.0207129, 19.9847495, 0.0)",50.0207129,19.9847495,0.0
469,Dwupoziomowy apartament z ogródkiem ok.Tetmajera,: Bronowice Małe,6.0,645 580 ,97.83,6599.0,https://www.otodom.pl/oferta/dwupoziomowy-apartament-z-ogrodkiem-ok-tetmajera-ID3Va8v.html#24f2434338,2019-03-11 07:59:18.877872,"Krakow , : Bronowice Małe",Tetmajera,Kraków Tetmajera,"Włodzimierza Tetmajera, Bronowice Małe, Bronowice, Kraków, województwo małopolskie, 31-351, Polska",ulica,"(50.0863976, 19.8801099, 0.0)",50.0863976,19.8801099,0.0
479,Mieszkanie 3 pok. 52m2  Wrocławska SUPER LOK.!!!,: Krowodrza,3.0,372 000 ,52.0,7154.0,https://www.otodom.pl/oferta/mieszkanie-3-pok-52m2-ul-wroclawska-super-lok-ID3V8oY.html#b7c17405d5,2019-03-11 07:59:19.642826,"Krakow , : Krowodrza",Wrocławska,Kraków Wrocławska,"Wrocławska, Stara Krowodrza, Krowodrza, Kraków, województwo małopolskie, 30-024, Polska",ulica,"(50.0782971, 19.9236467, 0.0)",50.0782971,19.9236467,0.0
488,Kraków Podg.Duch Lasogórska 2pok. 43 4m2 +Ogródek,: Podgórze Duchackie,2.0,299 000 ,43.4,6889.0,https://www.otodom.pl/oferta/krakow-podg-duch-lasogorska-2pok-43-4m2-ogrodek-ID3V912.html#b7c17405d5,2019-03-11 07:59:19.642826,"Krakow , : Podgórze Duchackie",Lasogórska,Kraków Lasogórska,"Lasogórska, Łysa Góra, Swoszowice, Kraków, województwo małopolskie, 30-434, Polska",ulica,"(49.9919895, 19.9290698, 0.0)",49.9919895,19.9290698,0.0
492,Ruczaj. Trzypokojowe  jasna kuchnia  balkon,: Ruczaj,3.0,499 900 ,61.2,8168.0,https://www.otodom.pl/oferta/ruczaj-trzypokojowe-jasna-kuchnia-balkon-ID3V8Ry.html#b7c17405d5,2019-03-11 07:59:19.642826,"Krakow , : Ruczaj",Ruczaj,Kraków Ruczaj,"Ruczaj, Osiedle Ruczaj-Zaborze, Łagiewniki-Borek Fałęcki, Kraków, województwo małopolskie, 30-410, Polska",ulica,"(50.0250823, 19.9239263, 0.0)",50.0250823,19.9239263,0.0
506,Nowe mieszkanie Czyżyny Orlińskiego,: Czyżyny,1.0,309 000 ,27.0,11444.0,https://www.otodom.pl/oferta/nowe-mieszkanie-czyzyny-orlinskiego-ID3V8jK.html#461619a5cf,2019-03-11 07:59:20.424062,"Krakow , : Czyżyny",Orlińskiego,Kraków Orlińskiego,"Osiedle Orlińskiego, Czyżyny, Kraków, województwo małopolskie, Polska",ulica,"(50.08015215, 20.002222674225532, 0.0)",50.08015215,20.002222674225532,0.0
510,Olsza / Ugorek  1 pokojowe z  bną jasną kuchnią.,: Ugorek,1.0,289 000 ,35.2,8210.0,https://www.otodom.pl/oferta/olsza-ugorek-1-pokojowe-z-osobna-jasna-kuchnia-ID3V82v.html#461619a5cf,2019-03-11 07:59:20.439691,"Krakow , : Ugorek",Ugorek,Kraków Ugorek,"Ugorek, Prądnik Czerwony, Kraków, województwo małopolskie, Polska",ulica,"(50.0770309, 19.981480243513374, 0.0)",50.0770309,19.981480243513374,0.0
513,2 pok. mieszkanie przy   Bobrzyńskiego  Ruczaj,: Dębniki,2.0,460 000 ,52.0,8846.0,https://www.otodom.pl/oferta/2-pok-mieszkanie-przy-ul-bobrzynskiego-ruczaj-ID3V7WK.html#461619a5cf,2019-03-11 07:59:20.439691,"Krakow , : Dębniki",Bobrzyńskiego,Kraków Bobrzyńskiego,"Profesora Michała Bobrzyńskiego, Kobierzyn, Dębniki, Kraków, województwo małopolskie, 30-348, Polska",ulica,"(50.0227713, 19.9007676, 0.0)",50.0227713,19.9007676,0.0
514,Nowoczesne Wysoki Standard Widok Na Park Podgórze,: Kurdwanów,3.0,465 000 ,61.5,7561.0,https://www.otodom.pl/oferta/nowoczesne-wysoki-standard-widok-na-park-podgorze-ID3V7QA.html#461619a5cf,2019-03-11 07:59:20.439691,"Krakow , : Kurdwanów",Widok,Kraków Widok,"Widok, Dąbie, Grzegórzki, Kraków, województwo małopolskie, 31-567, Polska",ulica,"(50.0573772, 19.9789268, 0.0)",50.0573772,19.9789268,0.0
516,  Mackiewicza  ustawne mieszkanie,: Prądnik Biały,3.0,375 000 ,63.0,5952.0,https://www.otodom.pl/oferta/ul-mackiewicza-ustawne-mieszkanie-ID3V7OM.html#461619a5cf,2019-03-11 07:59:20.439691,"Krakow , : Prądnik Biały",Mickiewicza,Kraków Mickiewicza,"Jana Zamoyskiego, Podgórze, Kraków, województwo małopolskie, 30-504, Polska",ulica,"(50.0397988, 19.9429693, 0.0)",50.0397988,19.9429693,0.0
519,Górka Narodowa dwupoziomowe  stan deweloperski,: Górka Narodowa,5.0,660 000 ,130.0,5077.0,https://www.otodom.pl/oferta/gorka-narodowa-dwupoziomowe-stan-deweloperski-ID3V7OA.html#461619a5cf,2019-03-11 07:59:20.439691,"Krakow , : Górka Narodowa",Narodowa,Kraków Narodowa,"Witkowice-Górka Narodowa Wschód, Prądnik Biały, Kraków, województwo małopolskie, 31-241, Polska",ulica,"(50.1021918, 19.9704174, 0.0)",50.1021918,19.9704174,0.0
520,  2 Pułku Lotniczego  4 pokoje  ustawne,: Czyżyny,4.0,449 000 ,73.0,6151.0,https://www.otodom.pl/oferta/os-2-pulku-lotniczego-4-pokoje-ustawne-ID3V7Oo.html#461619a5cf,2019-03-11 07:59:20.439691,"Krakow , : Czyżyny",Lotniczego,Kraków Lotniczego,"Osiedle 2. Pułku Lotniczego, Czyżyny, Kraków, województwo małopolskie, Polska",ulica,"(50.077365900000004, 20.008722110064895, 0.0)",50.077365900000004,20.008722110064895,0.0
522,  Szkolne  trzypokojowe  po remoncie,: małopolskie,3.0,389 900 ,54.0,7220.0,https://www.otodom.pl/oferta/os-szkolne-trzypokojowe-po-remoncie-ID3V7O8.html#461619a5cf,2019-03-11 07:59:20.439691,"Krakow , : małopolskie",Szkolne,Kraków Szkolne,"Osiedle Szkolne, Nowa Huta, Kraków, województwo małopolskie, Polska",ulica,"(50.0774958, 20.0482373, 0.0)",50.0774958,20.0482373,0.0
529,3 pokojowe wykończone Malachitowa  od właściciela!,: ocień,3.0,355 000 ,52.0,6827.0,https://www.otodom.pl/oferta/3-pokojowe-wykonczone-malachitowa-od-wlasciciela-ID3V7AQ.html#461619a5cf,2019-03-11 07:59:20.439691,"Krakow , : ocień",Malachitowa,Kraków Malachitowa,"Malachitowa, Złocień, Bieżanów-Prokocim, Kraków, województwo małopolskie, 30-798, Polska",ulica,"(50.0190389, 20.0541929, 0.0)",50.0190389,20.0541929,0.0
535,Zielone Zacisze Miasta 2pok. kameralna zabudowa!,: Bronowice,2.0,394 500 ,44.5,8865.0,https://www.otodom.pl/oferta/zielone-zacisze-miasta-2pok-kameralna-zabudowa-ID3V7lG.html#948935011d,2019-03-11 07:59:21.189793,"Krakow , : Bronowice",Zielona,Kraków Zielona,"Zielona, Wola Duchacka, Podgórze Duchackie, Kraków, województwo małopolskie, 30-623, Polska",ulica,"(50.020073, 19.9496437, 0.0)",50.020073,19.9496437,0.0
536,Dwupoziomowy apart. z prywatnym ogrodem Bronowice,: Bronowice,6.0,973 145 ,110.0,8847.0,https://www.otodom.pl/oferta/dwupoziomowy-apart-z-prywatnym-ogrodem-bronowice-ID3V7lC.html#948935011d,2019-03-11 07:59:21.189793,"Krakow , : Bronowice",Ogrodem,Kraków Ogrodem,"Za Ogrodem, Wadów, Wzgórza Krzesławickie, Kraków, województwo małopolskie, 31-990, Polska",ulica,"(50.0986422, 20.1175645, 0.0)",50.0986422,20.1175645,0.0
538,Gotowy apartament z ogrodem przy Wiśle  Sprawdź!,: Dębniki,3.0,660 500 ,72.0,9174.0,https://www.otodom.pl/oferta/gotowy-apartament-z-ogrodem-przy-wisle-sprawdz-ID3V7li.html#948935011d,2019-03-11 07:59:21.189793,"Krakow , : Dębniki",Ogrodem,Kraków Ogrodem,"Za Ogrodem, Wadów, Wzgórza Krzesławickie, Kraków, województwo małopolskie, 31-990, Polska",ulica,"(50.0986422, 20.1175645, 0.0)",50.0986422,20.1175645,0.0
543,PentHouse na Luksusowym Osiedlu przy Wiśle!,: Dębniki,2.0,758 000 ,81.0,9358.0,https://www.otodom.pl/oferta/penthouse-na-luksusowym-osiedlu-przy-wisle-ID3V7kY.html#948935011d,2019-03-11 07:59:21.189793,"Krakow , : Dębniki",Osiedle,Kraków Osiedle,"Osiedle, Łęg, Czyżyny, Kraków, województwo małopolskie, 31-587, Polska",ulica,"(50.0572333, 20.0151003, 0.0)",50.0572333,20.0151003,0.0
545,Gotowe 2 pokoje z Balkonem  Nowe Osiedle,: Mistrzejowice,2.0,270 000 ,32.0,8438.0,https://www.otodom.pl/oferta/gotowe-2-pokoje-z-balkonem-nowe-osiedle-ID3V7kQ.html#948935011d,2019-03-11 07:59:21.189793,"Krakow , : Mistrzejowice",Osiedle,Kraków Osiedle,"Osiedle, Łęg, Czyżyny, Kraków, województwo małopolskie, 31-587, Polska",ulica,"(50.0572333, 20.0151003, 0.0)",50.0572333,20.0151003,0.0
547,3pok. z prywatnym ogrodem Idealne Dla Rodziny!,: małopolskie,3.0,416 370 ,59.5,6998.0,https://www.otodom.pl/oferta/3pok-z-prywatnym-ogrodem-idealne-dla-rodziny-ID3V7kI.html#948935011d,2019-03-11 07:59:21.189793,"Krakow , : małopolskie",Ogrodem,Kraków Ogrodem,"Za Ogrodem, Wadów, Wzgórza Krzesławickie, Kraków, województwo małopolskie, 31-990, Polska",ulica,"(50.0986422, 20.1175645, 0.0)",50.0986422,20.1175645,0.0
552,Mistrzejowice 3pok.idealny układ Promocja sprawdź!,: Mistrzejowice,3.0,324 900 ,47.09,6900.0,https://www.otodom.pl/oferta/mistrzejowice-3pok-idealny-uklad-promocja-sprawdz-ID3V7jy.html#948935011d,2019-03-11 07:59:21.189793,"Krakow , : Mistrzejowice",Mistrzejowicka,Kraków Mistrzejowicka,"Mistrzejowicka, Mistrzejowice, Kraków, województwo małopolskie, 31-638, Polska",ulica,"(50.094553, 20.0276976, 0.0)",50.094553,20.0276976,0.0
554,Zielone Zacisze 3pok. przy Parku!Biuro sprzedaży!,: Mistrzejowice,3.0,331 560 ,51.0,6501.0,https://www.otodom.pl/oferta/zielone-zacisze-3pok-przy-parku-biuro-sprzedazy-ID3V7ju.html#948935011d,2019-03-11 07:59:21.189793,"Krakow , : Mistrzejowice",Zielona,Kraków Zielona,"Zielona, Wola Duchacka, Podgórze Duchackie, Kraków, województwo małopolskie, 30-623, Polska",ulica,"(50.020073, 19.9496437, 0.0)",50.020073,19.9496437,0.0
556,Narożne dwupokojowe mieszkanie z prywatnym ogrodem,: Mistrzejowice,2.0,277 700 ,39.5,7030.0,https://www.otodom.pl/oferta/narozne-dwupokojowe-mieszkanie-z-prywatnym-ogrodem-ID3V7ji.html#948935011d,2019-03-11 07:59:21.189793,"Krakow , : Mistrzejowice",Ogrodem,Kraków Ogrodem,"Za Ogrodem, Wadów, Wzgórza Krzesławickie, Kraków, województwo małopolskie, 31-990, Polska",ulica,"(50.0986422, 20.1175645, 0.0)",50.0986422,20.1175645,0.0
569,64m2 IIp Stare Miasto Rej.Kolberga Ul.Krowoderska,: Centrum,2.0,570 000 ,64.5,8837.0,https://www.otodom.pl/oferta/64m2-iip-stare-miasto-rej-kolberga-ul-krowoderska-ID3V6O8.html#731d207af4,2019-03-11 07:59:22.065074,"Krakow , : Centrum",Krowoderska,Kraków Krowoderska,"Krowoderska, Kleparz, Stare Miasto, Kraków, województwo małopolskie, 31-158, Polska",ulica,"(50.0711433, 19.9341128, 0.0)",50.0711433,19.9341128,0.0
570,Polecam Nuszkiewicza  72 60m2 garaż 2p/IV.,: Prądnik Czerwony,4.0,499 000 ,72.6,6873.0,https://www.otodom.pl/oferta/polecam-nuszkiewicza-72-60m2-garaz-2p-iv-ID3V6O4.html#731d207af4,2019-03-11 07:59:22.065074,"Krakow , : Prądnik Czerwony",Nuszkiewicza,Kraków Nuszkiewicza,"Majora Ryszarda Nuszkiewicza, Prądnik Czerwony, Kraków, województwo małopolskie, 31-406, Polska",ulica,"(50.0904996, 19.9617012, 0.0)",50.0904996,19.9617012,0.0
572,Polecam Olsza Ul.Wieniawskiego 2 pok.32 5m2 1p/III,: Olsza,2.0,260 000 ,32.5,8000.0,https://www.otodom.pl/oferta/polecam-olsza-ul-wieniawskiego-2-pok-32-5m2-1p-iii-ID3V6NS.html#731d207af4,2019-03-11 07:59:22.065074,"Krakow , : Olsza",Wieniawskiego,Kraków Wieniawskiego,"Henryka Wieniawskiego, Olsza II, Prądnik Czerwony, Kraków, województwo małopolskie, 31-436, Polska",ulica,"(50.0818138, 19.9640072, 0.0)",50.0818138,19.9640072,0.0
573,Polecam Ugorek 35m2 1p/X dwa balkony!!!po remoncie,: Ugorek,1.0,299 000 ,35.16,8504.0,https://www.otodom.pl/oferta/polecam-ugorek-35m2-1p-x-dwa-balkony-po-remoncie-ID3V6NO.html#731d207af4,2019-03-11 07:59:22.065074,"Krakow , : Ugorek",Ugorek,Kraków Ugorek,"Ugorek, Prądnik Czerwony, Kraków, województwo małopolskie, Polska",ulica,"(50.0770309, 19.981480243513374, 0.0)",50.0770309,19.981480243513374,0.0
576,Kazimierz M3 71 m2   Wrzesińska,: Kazimierz,3.0,547 000 ,71.0,7704.0,https://www.otodom.pl/oferta/kazimierz-m3-71-m2-ul-wrzesinska-ID3V6qI.html#731d207af4,2019-03-11 07:59:22.065074,"Krakow , : Kazimierz",Kazimierza,Kraków Kazimierza,"Kościół pw. Świętego Kazimierza Królewicza, 4, Reformacka, Stare Miasto, Kraków, województwo małopolskie, 31-012, Polska",ulica,"(50.0648696, 19.936230887154693, 0.0)",50.0648696,19.936230887154693,0.0
577,M4 75m2 Wola Duchacka   Dauna,: Dębniki,4.0,440 000 ,75.0,5867.0,https://www.otodom.pl/oferta/m4-75m2-wola-duchacka-ul-dauna-ID3V6qE.html#731d207af4,2019-03-11 07:59:22.065074,"Krakow , : Dębniki",Duchacka,Kraków Duchacka,"Duchacka, Olsza II, Prądnik Czerwony, Kraków, województwo małopolskie, 31-426, Polska",ulica,"(50.0842566, 19.9535619, 0.0)",50.0842566,19.9535619,0.0
582,Mieszkanie  wysoki standard  Wola Duchacka,: Wola Duchacka,3.0,439 000 ,52.11,8424.0,https://www.otodom.pl/oferta/mieszkanie-wysoki-standard-wola-duchacka-ID3V6eU.html#731d207af4,2019-03-11 07:59:22.065074,"Krakow , : Wola Duchacka",Duchacka,Kraków Duchacka,"Duchacka, Olsza II, Prądnik Czerwony, Kraków, województwo małopolskie, 31-426, Polska",ulica,"(50.0842566, 19.9535619, 0.0)",50.0842566,19.9535619,0.0
587,Mieszkanie Wola Duchacka    Gołaśka,: Wola Duchacka,4.0,439 000 ,85.3,5147.0,https://www.otodom.pl/oferta/mieszkanie-wola-duchacka-ul-golaska-ID3V6cA.html#acddc40820,2019-03-11 07:59:22.908528,"Krakow , : Wola Duchacka",Duchacka,Kraków Duchacka,"Duchacka, Olsza II, Prądnik Czerwony, Kraków, województwo małopolskie, 31-426, Polska",ulica,"(50.0842566, 19.9535619, 0.0)",50.0842566,19.9535619,0.0
596,Kraków   Stare Miasto     Czysta   34 32 m2,: Stare Miasto,1.0,350 000 ,34.32,10198.0,https://www.otodom.pl/oferta/krakow-stare-miasto-ul-czysta-34-32-m2-ID3V5TO.html#acddc40820,2019-03-11 07:59:22.908528,"Krakow , : Stare Miasto",Czysta,Kraków Czysta,"Czysta, Piasek, Stare Miasto, Kraków, województwo małopolskie, 31-121, Polska",ulica,"(50.0638432, 19.9262426, 0.0)",50.0638432,19.9262426,0.0
597,Apartament w centrum Krakowa   125 m2   4 pokoje,: Stare Miasto,4.0,1 600 000 ,125.0,12800.0,https://www.otodom.pl/oferta/apartament-w-centrum-krakowa-125-m2-4-pokoje-ID3V5NO.html#acddc40820,2019-03-11 07:59:22.908528,"Krakow , : Stare Miasto",Krakowa,Kraków Krakowa,"Muzeum Historyczne Miasta Krakowa Ulica Pomorska, 2, Pomorska, Nowa Wieś, Krowodrza, Kraków, województwo małopolskie, 30-039, Polska",ulica,"(50.0707757, 19.9248071, 0.0)",50.0707757,19.9248071,0.0
605,Sprzedam mieszkanie Ruczaj   Konopczyńskiego,: Ruczaj,3.0,850 000 ,69.0,12319.0,https://www.otodom.pl/oferta/sprzedam-mieszkanie-ruczaj-konopczynskiego-ID3V5rS.html#acddc40820,2019-03-11 07:59:22.908528,"Krakow , : Ruczaj",Ruczaj,Kraków Ruczaj,"Ruczaj, Osiedle Ruczaj-Zaborze, Łagiewniki-Borek Fałęcki, Kraków, województwo małopolskie, 30-410, Polska",ulica,"(50.0250823, 19.9239263, 0.0)",50.0250823,19.9239263,0.0
616,Stylowe studio w centrum Krk z balkonem,: Łobzów,1.0,365 000 ,30.0,12167.0,https://www.otodom.pl/oferta/stylowe-studio-w-centrum-krk-z-balkonem-ID3V5aE.html#0152a09993,2019-03-11 07:59:23.611583,"Krakow , : Łobzów",Stalowe,Kraków Stalowe,"Osiedle Stalowe, Nowa Huta, Kraków, województwo małopolskie, Polska",ulica,"(50.0738288, 20.0506477, 0.0)",50.0738288,20.0506477,0.0
618,Mieszkanie 3 Pokoje Kazimierz Centrum Inwestycja,: Kazimierz,3.0,822 000 ,53.0,15509.0,https://www.otodom.pl/oferta/mieszkanie-3-pokoje-kazimierz-centrum-inwestycja-ID3V5ao.html#0152a09993,2019-03-11 07:59:23.611583,"Krakow , : Kazimierz",Kazimierza,Kraków Kazimierza,"Kościół pw. Świętego Kazimierza Królewicza, 4, Reformacka, Stare Miasto, Kraków, województwo małopolskie, 31-012, Polska",ulica,"(50.0648696, 19.936230887154693, 0.0)",50.0648696,19.936230887154693,0.0
619,Mieszkanie 2 Pokoje Kazimierz Centrum Inwestycja,: Kazimierz,2.0,459 000 ,32.0,14344.0,https://www.otodom.pl/oferta/mieszkanie-2-pokoje-kazimierz-centrum-inwestycja-ID3V5ag.html#0152a09993,2019-03-11 07:59:23.611583,"Krakow , : Kazimierz",Kazimierza,Kraków Kazimierza,"Kościół pw. Świętego Kazimierza Królewicza, 4, Reformacka, Stare Miasto, Kraków, województwo małopolskie, 31-012, Polska",ulica,"(50.0648696, 19.936230887154693, 0.0)",50.0648696,19.936230887154693,0.0
621,Górka Narodowa   trzypokojowe mieszkanie z tarasem,: Górka Narodowa,3.0,485 000 ,65.53,7401.0,https://www.otodom.pl/oferta/gorka-narodowa-trzypokojowe-mieszkanie-z-tarasem-ID3V58v.html#0152a09993,2019-03-11 07:59:23.611583,"Krakow , : Górka Narodowa",Narodowa,Kraków Narodowa,"Witkowice-Górka Narodowa Wschód, Prądnik Biały, Kraków, województwo małopolskie, 31-241, Polska",ulica,"(50.1021918, 19.9704174, 0.0)",50.1021918,19.9704174,0.0
625,Kawalerka w Nowej Hucie na  Kalinowym   okazja,: Nowa Huta,1.0,175 000 ,20.0,8750.0,https://www.otodom.pl/oferta/kawalerka-w-nowej-hucie-na-os-kalinowym-okazja-ID3V516.html#0152a09993,2019-03-11 07:59:23.611583,"Krakow , : Nowa Huta",Nowe,Kraków Nowe,"Kraków, województwo małopolskie, Polska",ulica,"(50.0469432, 19.997153435836697, 0.0)",50.0469432,19.997153435836697,0.0
626,Nowa Huta   Gustawa Morcinka,: Nowa Huta,3.0,290 000 ,63.0,4603.0,https://www.otodom.pl/oferta/nowa-huta-ul-gustawa-morcinka-ID3V4Yg.html#0152a09993,2019-03-11 07:59:23.611583,"Krakow , : Nowa Huta",Morcinka,Kraków Morcinka,"Morcinka, Kocmyrzowska, Grębałów, Wzgórza Krzesławickie, Kraków, województwo małopolskie, 31-723, Polska",ulica,"(50.1042447, 20.0727904, 0.0)",50.1042447,20.0727904,0.0
628,Ciche mieszkanie na poddaszu  przy Kopcu Krakusa!,: Stare Podgórze,2.0,270 000 ,33.2,8133.0,https://www.otodom.pl/oferta/ciche-mieszkanie-na-poddaszu-przy-kopcu-krakusa-ID3V4Wq.html#0152a09993,2019-03-11 07:59:23.611583,"Krakow , : Stare Podgórze",Krakusa,Kraków Krakusa,"Krakusa, Podgórze, Kraków, województwo małopolskie, 30-537, Polska",ulica,"(50.0446274, 19.9525206, 0.0)",50.0446274,19.9525206,0.0
630,Nowa Huta   Na Stoku,: Nowa Huta,2.0,249 000 ,40.5,6148.0,https://www.otodom.pl/oferta/nowa-huta-os-na-stoku-ID3V4Uo.html#0152a09993,2019-03-11 07:59:23.611583,"Krakow , : Nowa Huta",Stoku,Kraków Stoku,"Osiedle Na Stoku, Wzgórza Krzesławickie, Kraków, województwo małopolskie, Polska",ulica,"(50.0961111, 20.0561111, 0.0)",50.0961111,20.0561111,0.0
635,Kordiana  Kurdwanów  52 m2  2 pokoje  balkon,: Wola Duchacka,2.0,390 000 ,52.0,7500.0,https://www.otodom.pl/oferta/kordiana-kurdwanow-52-m2-2-pokoje-balkon-ID3V4DC.html#0152a09993,2019-03-11 07:59:23.611583,"Krakow , : Wola Duchacka",Kordiana,Kraków Kordiana,"Kordiana, Kurdwanów, Podgórze Duchackie, Kraków, województwo małopolskie, 30-653, Polska",ulica,"(50.0102046, 19.9634521, 0.0)",50.0102046,19.9634521,0.0
641,Kapelanka: duży balkon  piękny widok  winda  garaż,: Zakrzówek,2.0,545 000 ,50.0,10900.0,https://www.otodom.pl/oferta/kapelanka-duzy-balkon-piekny-widok-winda-garaz-ID3V4uo.html#af9a30ba0a,2019-03-11 07:59:24.346288,"Krakow , : Zakrzówek",Kapelanka,Kraków Kapelanka,"Kapelanka, Osiedle Podwawelskie, Dębniki, Kraków, województwo małopolskie, 30-346, Polska",ulica,"(50.0434871, 19.9227043, 0.0)",50.0434871,19.9227043,0.0
646,Nowoczesne  Urzędnicza 19  2 pokoje+ kuchnia,: Czarna Wieś,2.0,420 000 ,45.0,9333.0,https://www.otodom.pl/oferta/nowoczesne-urzednicza-19-2-pokoje-kuchnia-ID3V4nK.html#af9a30ba0a,2019-03-11 07:59:24.346288,"Krakow , : Czarna Wieś",Urzędnicza,Kraków Urzędnicza,"Urzędnicza, Nowa Wieś, Krowodrza, Kraków, województwo małopolskie, 30-051, Polska",ulica,"(50.0703088, 19.9185146, 0.0)",50.0703088,19.9185146,0.0
649,/Nowa Huta/Świetna Inwestycja/Do Własnej Aranżacji,: Mistrzejowice,3.0,299 000 ,47.8,6255.0,https://www.otodom.pl/oferta/nowa-huta-swietna-inwestycja-do-wlasnej-aranzacji-ID3V4mg.html#af9a30ba0a,2019-03-11 07:59:24.346288,"Krakow , : Mistrzejowice",Nowa,Kraków Nowa,"Kraków, województwo małopolskie, Polska",ulica,"(50.0469432, 19.997153435836697, 0.0)",50.0469432,19.997153435836697,0.0
656,Mieszkanie   Kraków Ruczaj,: Ruczaj,1.0,250 000 ,31.43,7954.0,https://www.otodom.pl/oferta/mieszkanie-krakow-ruczaj-ID3V4ao.html#af9a30ba0a,2019-03-11 07:59:24.346288,"Krakow , : Ruczaj",Ruczaj,Kraków Ruczaj,"Ruczaj, Osiedle Ruczaj-Zaborze, Łagiewniki-Borek Fałęcki, Kraków, województwo małopolskie, 30-410, Polska",ulica,"(50.0250823, 19.9239263, 0.0)",50.0250823,19.9239263,0.0
657,Mieszkanie   Kraków Ruczaj,: Ruczaj,1.0,227 000 ,26.32,8625.0,https://www.otodom.pl/oferta/mieszkanie-krakow-ruczaj-ID3V4ak.html#af9a30ba0a,2019-03-11 07:59:24.346288,"Krakow , : Ruczaj",Ruczaj,Kraków Ruczaj,"Ruczaj, Osiedle Ruczaj-Zaborze, Łagiewniki-Borek Fałęcki, Kraków, województwo małopolskie, 30-410, Polska",ulica,"(50.0250823, 19.9239263, 0.0)",50.0250823,19.9239263,0.0
658,Mieszkanie   Kraków Ruczaj,: Ruczaj,2.0,325 000 ,40.29,8067.0,https://www.otodom.pl/oferta/mieszkanie-krakow-ruczaj-ID3V4ac.html#af9a30ba0a,2019-03-11 07:59:24.346288,"Krakow , : Ruczaj",Ruczaj,Kraków Ruczaj,"Ruczaj, Osiedle Ruczaj-Zaborze, Łagiewniki-Borek Fałęcki, Kraków, województwo małopolskie, 30-410, Polska",ulica,"(50.0250823, 19.9239263, 0.0)",50.0250823,19.9239263,0.0
659,Mieszkanie   Kraków Ruczaj,: Ruczaj,1.0,269 000 ,28.41,9468.0,https://www.otodom.pl/oferta/mieszkanie-krakow-ruczaj-ID3V4ag.html#af9a30ba0a,2019-03-11 07:59:24.346288,"Krakow , : Ruczaj",Ruczaj,Kraków Ruczaj,"Ruczaj, Osiedle Ruczaj-Zaborze, Łagiewniki-Borek Fałęcki, Kraków, województwo małopolskie, 30-410, Polska",ulica,"(50.0250823, 19.9239263, 0.0)",50.0250823,19.9239263,0.0
662,Wola Justowska 2 pok.   4 km od Centrum,: Wola Justowska,2.0,394 000 ,44.0,8955.0,https://www.otodom.pl/oferta/wola-justowska-2-pok-4-km-od-centrum-ID3V49G.html#af9a30ba0a,2019-03-11 07:59:24.346288,"Krakow , : Wola Justowska",Justowska,Kraków Justowska,"Justowska, Osiedle Widok Zarzecze, Bronowice, Kraków, województwo małopolskie, 30-138, Polska",ulica,"(50.0754855, 19.8840381, 0.0)",50.0754855,19.8840381,0.0
663,Mieszkanie 2 pok z ogrodem w ok. Jasnogórskiej,: Bronowice Małe,2.0,398 000 ,49.0,8122.0,https://www.otodom.pl/oferta/mieszkanie-2-pok-z-ogrodem-w-ok-jasnogorskiej-ID3V49C.html#af9a30ba0a,2019-03-11 07:59:24.346288,"Krakow , : Bronowice Małe",Ogrodem,Kraków Ogrodem,"Za Ogrodem, Wadów, Wzgórza Krzesławickie, Kraków, województwo małopolskie, 31-990, Polska",ulica,"(50.0986422, 20.1175645, 0.0)",50.0986422,20.1175645,0.0
669,Mieszkanie 4 pok z ogrodem w ok. Jasnogórskiej,: Bronowice Małe,1.0,490 000 ,83.0,5904.0,https://www.otodom.pl/oferta/mieszkanie-4-pok-z-ogrodem-w-ok-jasnogorskiej-ID3V42k.html#733bc83f5e,2019-03-11 07:59:25.033871,"Krakow , : Bronowice Małe",Ogrodem,Kraków Ogrodem,"Za Ogrodem, Wadów, Wzgórza Krzesławickie, Kraków, województwo małopolskie, 31-990, Polska",ulica,"(50.0986422, 20.1175645, 0.0)",50.0986422,20.1175645,0.0
670,2 pokoje  Zwierzyniec  oddanie w tym roku  Ogród,: Zwierzyniec,3.0,473 000 ,57.0,8298.0,https://www.otodom.pl/oferta/2-pokoje-zwierzyniec-oddanie-w-tym-roku-ogrod-ID3V428.html#733bc83f5e,2019-03-11 07:59:25.033871,"Krakow , : Zwierzyniec",Zwierzyniecki,Kraków Zwierzyniecki,"Muzeum Narodowe w Krakowie, 1, Aleja 3 Maja, Półwsie Zwierzynieckie, Zwierzyniec, Kraków, województwo małopolskie, 30-062, Polska",ulica,"(50.06043135, 19.923620120041726, 0.0)",50.06043135,19.923620120041726,0.0
671,Mieszkanie 1 pok z ogrodem gotowe Bronowice,: Bronowice Małe,1.0,263 000 ,34.0,7735.0,https://www.otodom.pl/oferta/mieszkanie-1-pok-z-ogrodem-gotowe-bronowice-ID3V424.html#733bc83f5e,2019-03-11 07:59:25.033871,"Krakow , : Bronowice Małe",Ogrodem,Kraków Ogrodem,"Za Ogrodem, Wadów, Wzgórza Krzesławickie, Kraków, województwo małopolskie, 31-990, Polska",ulica,"(50.0986422, 20.1175645, 0.0)",50.0986422,20.1175645,0.0
673,Mogilska Tower 55m2 nowe niezamieszkałe wykończone,: Wieczysta,3.0,605 000 ,55.0,11000.0,https://www.otodom.pl/oferta/mogilska-tower-55m2-nowe-niezamieszkale-wykonczone-ID3V3Z6.html#733bc83f5e,2019-03-11 07:59:25.033871,"Krakow , : Wieczysta",Mogilska,Kraków Mogilska,"Mogilska, Osiedle Oficerskie, Grzegórzki, Kraków, województwo małopolskie, 31-546, Polska",ulica,"(50.0665972, 19.9689644, 0.0)",50.0665972,19.9689644,0.0
675,2 pokoje  Bronowice w otoczeniu Zieleni  lasu,: Bronowice Wielkie,2.0,224 000 ,33.0,6788.0,https://www.otodom.pl/oferta/2-pokoje-bronowice-w-otoczeniu-zieleni-lasu-ID3V3SQ.html#733bc83f5e,2019-03-11 07:59:25.033871,"Krakow , : Bronowice Wielkie",Zieleniec,Kraków Zieleniec,"Zieleniec, Prokocim, Bieżanów-Prokocim, Kraków, województwo małopolskie, 30-663, Polska",ulica,"(50.0207129, 19.9847495, 0.0)",50.0207129,19.9847495,0.0
676,3 pokojowe mieszkanie   Zielone Bronowice,: Bronowice,3.0,570 000 ,66.0,8636.0,https://www.otodom.pl/oferta/3-pokojowe-mieszkanie-zielone-bronowice-ID3V3SM.html#733bc83f5e,2019-03-11 07:59:25.033871,"Krakow , : Bronowice",Zielona,Kraków Zielona,"Zielona, Wola Duchacka, Podgórze Duchackie, Kraków, województwo małopolskie, 30-623, Polska",ulica,"(50.020073, 19.9496437, 0.0)",50.020073,19.9496437,0.0
680,3 pokoje  Bronowice w otoczeniu Zieleni  lasu,: Bronowice Wielkie,3.0,377 000 ,57.0,6614.0,https://www.otodom.pl/oferta/3-pokoje-bronowice-w-otoczeniu-zieleni-lasu-ID3V3KI.html#733bc83f5e,2019-03-11 07:59:25.033871,"Krakow , : Bronowice Wielkie",Zieleniec,Kraków Zieleniec,"Zieleniec, Prokocim, Bieżanów-Prokocim, Kraków, województwo małopolskie, 30-663, Polska",ulica,"(50.0207129, 19.9847495, 0.0)",50.0207129,19.9847495,0.0
682,3 pokojowe mieszkanie   Zielone Bronowice,: Bronowice,3.0,391 000 ,43.0,9093.0,https://www.otodom.pl/oferta/3-pokojowe-mieszkanie-zielone-bronowice-ID3V3Kv.html#733bc83f5e,2019-03-11 07:59:25.033871,"Krakow , : Bronowice",Zielona,Kraków Zielona,"Zielona, Wola Duchacka, Podgórze Duchackie, Kraków, województwo małopolskie, 30-623, Polska",ulica,"(50.020073, 19.9496437, 0.0)",50.020073,19.9496437,0.0
683,Wola Justowska 4 pok.   7 km od Centrum,: Wola Justowska,4.0,747 000 ,98.0,7622.0,https://www.otodom.pl/oferta/wola-justowska-4-pok-7-km-od-centrum-ID3V3Ks.html#733bc83f5e,2019-03-11 07:59:25.033871,"Krakow , : Wola Justowska",Justowska,Kraków Justowska,"Justowska, Osiedle Widok Zarzecze, Bronowice, Kraków, województwo małopolskie, 30-138, Polska",ulica,"(50.0754855, 19.8840381, 0.0)",50.0754855,19.8840381,0.0
695,Piętro w Kamienicy   Zwierzyniecka 500m od Rynku,: Stare Miasto,9.0,3 200 000 ,200.0,16000.0,https://www.otodom.pl/oferta/pietro-w-kamienicy-ul-zwierzyniecka-500m-od-rynku-ID3V3us.html#9a94e89e50,2019-03-11 07:59:25.705019,"Krakow , : Stare Miasto",Zwierzyniecki,Kraków Zwierzyniecki,"Muzeum Narodowe w Krakowie, 1, Aleja 3 Maja, Półwsie Zwierzynieckie, Zwierzyniec, Kraków, województwo małopolskie, 30-062, Polska",ulica,"(50.06043135, 19.923620120041726, 0.0)",50.06043135,19.923620120041726,0.0
701,Nowe  3 pokojowe  59  40 m2    Opalowa,: Bieżanów-Prokocim,3.0,282 140 ,59.4,4750.0,https://www.otodom.pl/oferta/nowe-3-pokojowe-59-40-m2-ul-opalowa-ID3V3nu.html#9a94e89e50,2019-03-11 07:59:25.705019,"Krakow , : Bieżanów-Prokocim",Opalowa,Kraków Opalowa,"Opalowa, Złocień, Bieżanów-Prokocim, Kraków, województwo małopolskie, 30-798, Polska",ulica,"(50.0213418, 20.0521586, 0.0)",50.0213418,20.0521586,0.0
721,Ruczaj/2 pokoje/39m2/4 piętro,: Ruczaj,2.0,299 000 ,39.07,7653.0,https://www.otodom.pl/oferta/ruczaj-2-pokoje-39m2-4-pietro-ID3R3lu.html#4e65447592,2019-03-11 07:59:26.536063,"Krakow , : Ruczaj",Ruczaj,Kraków Ruczaj,"Ruczaj, Osiedle Ruczaj-Zaborze, Łagiewniki-Borek Fałęcki, Kraków, województwo małopolskie, 30-410, Polska",ulica,"(50.0250823, 19.9239263, 0.0)",50.0250823,19.9239263,0.0
722,Wielicka Garden/Gotowe/ 3  pokoje/52m2,: Podgórze,3.0,485 000 ,52.0,9327.0,https://www.otodom.pl/oferta/wielicka-garden-gotowe-3-pokoje-52m2-ID3Rkre.html#4e65447592,2019-03-11 07:59:26.536063,"Krakow , : Podgórze",Wielicka,Kraków Wielicka,"Wielicka, Rżąka, Bieżanów-Prokocim, Kraków, województwo małopolskie, 30-809, Polska",ulica,"(50.0139687, 19.9995809, 0.0)",50.0139687,19.9995809,0.0
725,Mieszkanie 2 pok Ruczaj Kraków,: małopolskie,2.0,357 000 ,50.05,7133.0,https://www.otodom.pl/oferta/mieszkanie-2-pok-ruczaj-krakow-ID3Sx8Q.html#4e65447592,2019-03-11 07:59:26.536063,"Krakow , : małopolskie",Ruczaj,Kraków Ruczaj,"Ruczaj, Osiedle Ruczaj-Zaborze, Łagiewniki-Borek Fałęcki, Kraków, województwo małopolskie, 30-410, Polska",ulica,"(50.0250823, 19.9239263, 0.0)",50.0250823,19.9239263,0.0
743,Mieszkanie 29m2 *  Wielicka * kawalerka * garaż,: Podgórze,1.0,245 000 ,29.0,8448.0,https://www.otodom.pl/oferta/mieszkanie-29m2-ul-wielicka-kawalerka-garaz-ID3UFLu.html#4e65447592,2019-03-11 07:59:26.536063,"Krakow , : Podgórze",Wielicka,Kraków Wielicka,"Wielicka, Rżąka, Bieżanów-Prokocim, Kraków, województwo małopolskie, 30-809, Polska",ulica,"(50.0139687, 19.9995809, 0.0)",50.0139687,19.9995809,0.0
746,Dwupoziomowy Apartament Ruczaj,: Ruczaj,4.0,730 000 ,134.97,5409.0,https://www.otodom.pl/oferta/dwupoziomowy-apartament-ruczaj-ID3SbeU.html#4e65447592,2019-03-11 07:59:26.536063,"Krakow , : Ruczaj",Ruczaj,Kraków Ruczaj,"Ruczaj, Osiedle Ruczaj-Zaborze, Łagiewniki-Borek Fałęcki, Kraków, województwo małopolskie, 30-410, Polska",ulica,"(50.0250823, 19.9239263, 0.0)",50.0250823,19.9239263,0.0
750,Kamienica z 10 apartamentami,: Śródmieście,10.0,6 300 000 ,640.0,9844.0,https://www.otodom.pl/oferta/kamienica-z-10-apartamentami-ID3UXN2.html#4e65447592,2019-03-11 07:59:27.465309,"Krakow , : Śródmieście",Kamieniecka,Kraków Kamieniecka,"Kamieniecka, Kobierzyn, Swoszowice, Kraków, województwo małopolskie, 30-389, Polska",ulica,"(49.9999904, 19.8972532, 0.0)",49.9999904,19.8972532,0.0
752,SALWATOR   komfortowe 66m2 z ogrodem 128m2,: Salwator,3.0,936 740 ,66.91,14000.0,https://www.otodom.pl/oferta/salwator-komfortowe-66m2-z-ogrodem-128m2-ID3PEXq.html#4e65447592,2019-03-11 07:59:27.465309,"Krakow , : Salwator",Ogrodem,Kraków Ogrodem,"Za Ogrodem, Wadów, Wzgórza Krzesławickie, Kraków, województwo małopolskie, 31-990, Polska",ulica,"(50.0986422, 20.1175645, 0.0)",50.0986422,20.1175645,0.0
755,Inwestycyjne 2 pokojowe z tarasem   Starowiślna,: małopolskie,2.0,465 000 ,32.0,14531.0,https://www.otodom.pl/oferta/inwestycyjne-2-pokojowe-z-tarasem-ul-starowislna-ID3VeoU.html#89e33f6554,2019-03-12 08:53:03.294163,"Krakow , : małopolskie",Starowiślna,Kraków Starowiślna,"Starowiślna, Kazimierz, Stare Miasto, Kraków, województwo małopolskie, 31-038, Polska",ulica,"(50.0560672, 19.9457877, 0.0)",50.0560672,19.9457877,0.0
757,Mieszkanie 53m2  do remontu! Bieżanów Prokocim,: Bieżanów,2.0,270 000 ,53.0,5094.0,https://www.otodom.pl/oferta/mieszkanie-53m2-do-remontu-biezanow-prokocim-ID3VePC.html#89e33f6554,2019-03-12 08:53:03.294163,"Krakow , : Bieżanów",Prokocimia,Kraków Prokocimia,"Prokocim, Bieżanów-Prokocim, Kraków, województwo małopolskie, Polska",ulica,"(50.0226748, 19.9921741, 0.0)",50.0226748,19.9921741,0.0
758,Piękne mieszkanie z ogrodem,: małopolskie,3.0,480 000 ,64.3,7465.0,https://www.otodom.pl/oferta/piekne-mieszkanie-z-ogrodem-ID3VdE0.html#89e33f6554,2019-03-12 08:53:03.294163,"Krakow , : małopolskie",Ogrodem,Kraków Ogrodem,"Za Ogrodem, Wadów, Wzgórza Krzesławickie, Kraków, województwo małopolskie, 31-990, Polska",ulica,"(50.0986422, 20.1175645, 0.0)",50.0986422,20.1175645,0.0
764,3 pokoje w wysokim standardzie na Os. Za Fortem,: Kliny-Zacisze,3.0,495 000 ,61.2,8088.0,https://www.otodom.pl/oferta/3-pokoje-w-wysokim-standardzie-na-os-za-fortem-ID3Vg4c.html#89e33f6554,2019-03-12 08:53:03.294163,"Krakow , : Kliny-Zacisze",Fortem,Kraków Fortem,"Osiedle Za Fortem, Swoszowice, Kraków, województwo małopolskie, Polska",ulica,"(49.9977273, 19.9001256, 0.0)",49.9977273,19.9001256,0.0
775,Mieszkanie 35m2 Bieżanów   Prokocim,: Bieżanów,1.0,250 000 ,35.0,7143.0,https://www.otodom.pl/oferta/mieszkanie-35m2-biezanow-prokocim-ID3VfEI.html#89e33f6554,2019-03-12 08:53:03.309796,"Krakow , : Bieżanów",Prokocimia,Kraków Prokocimia,"Prokocim, Bieżanów-Prokocim, Kraków, województwo małopolskie, Polska",ulica,"(50.0226748, 19.9921741, 0.0)",50.0226748,19.9921741,0.0
779,Apartament Halczyna,: Łobzów,6.0,940 000 ,138.0,6812.0,https://www.otodom.pl/oferta/apartament-halczyna-ID3VfEo.html#89e33f6554,2019-03-12 08:53:03.309796,"Krakow , : Łobzów",Halczyna,Kraków Halczyna,"Wojciecha Halczyna, Łobzów, Krowodrza, Kraków, województwo małopolskie, 30-085, Polska",ulica,"(50.0798607, 19.9069207, 0.0)",50.0798607,19.9069207,0.0
789,Piękne  po remoncie 3 pok. Żabiniec 56m2  parking,: małopolskie,3.0,429 000 ,56.0,7661.0,https://www.otodom.pl/oferta/piekne-po-remoncie-3-pok-zabiniec-56m2-parking-ID3VbsY.html#3f7ebb237a,2019-03-12 08:53:04.950569,"Krakow , : małopolskie",parkingu,Kraków parkingu,"zjazd do parkingu, Czyżyny, Kraków, województwo małopolskie, 31-982, Polska",ulica,"(50.0703024, 20.0169552, 0.0)",50.0703024,20.0169552,0.0
792,Duże Mieszkanie Prądnik Czerwony,: Prądnik Czerwony,3.0,465 000 ,85.0,5471.0,https://www.otodom.pl/oferta/duze-mieszkanie-pradnik-czerwony-ID3Vfgv.html#3f7ebb237a,2019-03-12 08:53:04.950569,"Krakow , : Prądnik Czerwony",Czerwona,Kraków Czerwona,"Czerwona, Olsza II, Prądnik Czerwony, Kraków, województwo małopolskie, 31-424, Polska",ulica,"(50.0849372, 19.9554073, 0.0)",50.0849372,19.9554073,0.0
798,Trzypokojowy apartament z ogrodem  Wola Justowska,: Wola Justowska,3.0,540 900 ,58.18,9297.0,https://www.otodom.pl/oferta/trzypokojowy-apartament-z-ogrodem-wola-justowska-ID3Vfa4.html#3f7ebb237a,2019-03-12 08:53:04.950569,"Krakow , : Wola Justowska",Ogrodem,Kraków Ogrodem,"Za Ogrodem, Wadów, Wzgórza Krzesławickie, Kraków, województwo małopolskie, 31-990, Polska",ulica,"(50.0986422, 20.1175645, 0.0)",50.0986422,20.1175645,0.0
802,Mieszkanie 3 pokoje  64 m2   ca Nowohucka,: Płaszów,3.0,479 000 ,64.0,7484.0,https://www.otodom.pl/oferta/mieszkanie-3-pokoje-64-m2-ulica-nowohucka-ID3Vf4Q.html#3f7ebb237a,2019-03-12 08:53:04.950569,"Krakow , : Płaszów",Nowohucka,Kraków Nowohucka,"Nowohucka, Czyżyny, Kraków, województwo małopolskie, 31-573, Polska",ulica,"(50.0553121, 19.9978393, 0.0)",50.0553121,19.9978393,0.0
830,2 pokojowe mieszkanie Mistrzejowice,: Mistrzejowice,2.0,270 723 ,44.0,6153.0,https://www.otodom.pl/oferta/2-pokojowe-mieszkanie-mistrzejowice-ID3VeIv.html#85fbb29208,2019-03-12 08:53:06.481977,"Krakow , : Mistrzejowice",Mistrzejowicka,Kraków Mistrzejowicka,"Mistrzejowicka, Mistrzejowice, Kraków, województwo małopolskie, 31-638, Polska",ulica,"(50.094553, 20.0276976, 0.0)",50.094553,20.0276976,0.0
831,2 Pokoje   Ruczaj  Możliwość Osobnej Jasnej Kuchni,: Dębniki,2.0,352 852 ,50.05,7050.0,https://www.otodom.pl/oferta/2-pokoje-ruczaj-mozliwosc-osobnej-jasnej-kuchni-ID3VeIA.html#85fbb29208,2019-03-12 08:53:06.481977,"Krakow , : Dębniki",Ruczaj,Kraków Ruczaj,"Ruczaj, Osiedle Ruczaj-Zaborze, Łagiewniki-Borek Fałęcki, Kraków, województwo małopolskie, 30-410, Polska",ulica,"(50.0250823, 19.9239263, 0.0)",50.0250823,19.9239263,0.0
832,3 Pokoje   Ruczaj   Dwa Balkony,: Dębniki,3.0,457 208 ,68.24,6700.0,https://www.otodom.pl/oferta/3-pokoje-ruczaj-dwa-balkony-ID3VeIE.html#85fbb29208,2019-03-12 08:53:06.481977,"Krakow , : Dębniki",Ruczaj,Kraków Ruczaj,"Ruczaj, Osiedle Ruczaj-Zaborze, Łagiewniki-Borek Fałęcki, Kraków, województwo małopolskie, 30-410, Polska",ulica,"(50.0250823, 19.9239263, 0.0)",50.0250823,19.9239263,0.0
833,3 Pokoje   Ruczaj   Loggia,: Dębniki,3.0,374 204 ,55.03,6800.0,https://www.otodom.pl/oferta/3-pokoje-ruczaj-loggia-ID3VeII.html#85fbb29208,2019-03-12 08:53:06.481977,"Krakow , : Dębniki",Ruczaj,Kraków Ruczaj,"Ruczaj, Osiedle Ruczaj-Zaborze, Łagiewniki-Borek Fałęcki, Kraków, województwo małopolskie, 30-410, Polska",ulica,"(50.0250823, 19.9239263, 0.0)",50.0250823,19.9239263,0.0
834,Apartament  Cicha I Spokojna Okolica   Skotniki,: Skotniki,4.0,544 000 ,109.0,4991.0,https://www.otodom.pl/oferta/apartament-cicha-i-spokojna-okolica-skotniki-ID3VeIo.html#85fbb29208,2019-03-12 08:53:06.481977,"Krakow , : Skotniki",Cicha,Kraków Cicha,"Cicha, Bronowice, Kraków, województwo małopolskie, 30-129, Polska",ulica,"(50.0741518, 19.899188, 0.0)",50.0741518,19.899188,0.0
835,4 pokojowe mieszkanie Mistrzejowice,: Mistrzejowice,4.0,388 020 ,66.9,5800.0,https://www.otodom.pl/oferta/4-pokojowe-mieszkanie-mistrzejowice-ID3VeIs.html#85fbb29208,2019-03-12 08:53:06.481977,"Krakow , : Mistrzejowice",Mistrzejowicka,Kraków Mistrzejowicka,"Mistrzejowicka, Mistrzejowice, Kraków, województwo małopolskie, 31-638, Polska",ulica,"(50.094553, 20.0276976, 0.0)",50.094553,20.0276976,0.0
838,3 pokoje na Cegielnianej !!!!!!,: Łagiewniki,3.0,441 336 ,59.64,7400.0,https://www.otodom.pl/oferta/3-pokoje-na-cegielnianej-ID3VeI4.html#85fbb29208,2019-03-12 08:53:06.481977,"Krakow , : Łagiewniki",Cegielniana,Kraków Cegielniana,"Cegielniana, Osiedle Cegielniana, Łagiewniki-Borek Fałęcki, Kraków, województwo małopolskie, 30-404, Polska",ulica,"(50.0265253, 19.9330994, 0.0)",50.0265253,19.9330994,0.0
839,2 pokoje na Cegielnianej !!!!!!,: Łagiewniki,2.0,321 530 ,40.7,7900.0,https://www.otodom.pl/oferta/2-pokoje-na-cegielnianej-ID3VeI8.html#85fbb29208,2019-03-12 08:53:06.481977,"Krakow , : Łagiewniki",Cegielniana,Kraków Cegielniana,"Cegielniana, Osiedle Cegielniana, Łagiewniki-Borek Fałęcki, Kraków, województwo małopolskie, 30-404, Polska",ulica,"(50.0265253, 19.9330994, 0.0)",50.0265253,19.9330994,0.0
848,Stare Miasto  Garbarska  66m2  3 pok  1 piętro.,: Stare Miasto,3.0,750 000 ,66.0,11364.0,https://www.otodom.pl/oferta/stare-miasto-garbarska-66m2-3-pok-1-pietro-ID3VdFK.html#d245b9f81f,2019-03-12 08:53:08.060292,"Krakow , : Stare Miasto",Garbarska,Kraków Garbarska,"Garbarska, Piasek, Stare Miasto, Kraków, województwo małopolskie, 31-134, Polska",ulica,"(50.0657316, 19.9353068, 0.0)",50.0657316,19.9353068,0.0
853,Trzypokojowe Mieszkanie Koło Bonarki,: Wola Duchacka,3.0,459 000 ,63.24,7258.0,https://www.otodom.pl/oferta/trzypokojowe-mieszkanie-kolo-bonarki-ID3VeHC.html#d245b9f81f,2019-03-12 08:53:08.060292,"Krakow , : Wola Duchacka",Bonarka,Kraków Bonarka,"Kraków Bonarka, Kładka pieszo-rowerowa, Wola Duchacka, Podgórze Duchackie, Kraków, województwo małopolskie, 30-416, Polska",ulica,"(50.0293189, 19.9462275, 0.0)",50.0293189,19.9462275,0.0
854,1 pokojowe mieszkanie obok Bonarki !!!!!,: Łagiewniki,1.0,231 266 ,29.09,7950.0,https://www.otodom.pl/oferta/1-pokojowe-mieszkanie-obok-bonarki-ID3VeHK.html#d245b9f81f,2019-03-12 08:53:08.060292,"Krakow , : Łagiewniki",Bonarka,Kraków Bonarka,"Kraków Bonarka, Kładka pieszo-rowerowa, Wola Duchacka, Podgórze Duchackie, Kraków, województwo małopolskie, 30-416, Polska",ulica,"(50.0293189, 19.9462275, 0.0)",50.0293189,19.9462275,0.0
863,Lub ron Ruczaj  77m2  Balkon  3 Pokoje,: Ruczaj,3.0,516 000 ,77.0,6701.0,https://www.otodom.pl/oferta/lubostron-ruczaj-77m2-balkon-3-pokoje-ID3VeC8.html#d245b9f81f,2019-03-12 08:53:08.060292,"Krakow , : Ruczaj",Ruczaj,Kraków Ruczaj,"Ruczaj, Osiedle Ruczaj-Zaborze, Łagiewniki-Borek Fałęcki, Kraków, województwo małopolskie, 30-410, Polska",ulica,"(50.0250823, 19.9239263, 0.0)",50.0250823,19.9239263,0.0
867,Ruczaj 2 Pokojowe Wysoki Standard,: Ruczaj,2.0,445 000 ,52.0,8558.0,https://www.otodom.pl/oferta/ruczaj-2-pokojowe-wysoki-standard-ID3VemI.html#d245b9f81f,2019-03-12 08:53:08.060292,"Krakow , : Ruczaj",Ruczaj,Kraków Ruczaj,"Ruczaj, Osiedle Ruczaj-Zaborze, Łagiewniki-Borek Fałęcki, Kraków, województwo małopolskie, 30-410, Polska",ulica,"(50.0250823, 19.9239263, 0.0)",50.0250823,19.9239263,0.0
884,Malownicze Bronowice ustawne mieszkanie 33 78 ,: małopolskie,1.0,240 800 ,33.78,7128.0,https://www.otodom.pl/oferta/malownicze-bronowice-ustawne-mieszkanie-33-78-m-ID3Ve7O.html#2586a7ec49,2019-03-12 08:53:09.622957,"Krakow , : małopolskie",Malownicza,Kraków Malownicza,"Malownicza, Wola Justowska - Chełm, Zwierzyniec, Kraków, województwo małopolskie, 30-237, Polska",ulica,"(50.0712748, 19.8511314, 0.0)",50.0712748,19.8511314,0.0
885,Bronowice Radzikowskiego trzypokojowe 53m2,: Bronowice Małe,3.0,415 000 ,53.0,7830.0,https://www.otodom.pl/oferta/bronowice-radzikowskiego-trzypokojowe-53m2-ID3Ve5y.html#2586a7ec49,2019-03-12 08:53:09.622957,"Krakow , : Bronowice Małe",Idzikowskiego,Kraków Idzikowskiego,"Ludwika Idzikowskiego, Rakowice, Grzegórzki, Kraków, województwo małopolskie, 31-519, Polska",ulica,"(50.0768625, 19.9600088, 0.0)",50.0768625,19.9600088,0.0
887,Ładne zadbane 3 pokojowe   Tysiąclecia,: Mistrzejowice,3.0,339 000 ,47.3,7167.0,https://www.otodom.pl/oferta/ladne-zadbane-3-pokojowe-os-tysiaclecia-ID3VdWK.html#2586a7ec49,2019-03-12 08:53:09.622957,"Krakow , : Mistrzejowice",Tysiąclecia,Kraków Tysiąclecia,"Osiedle Tysiąclecia, Mistrzejowice, Kraków, województwo małopolskie, Polska",ulica,"(50.0917147, 20.0012344, 0.0)",50.0917147,20.0012344,0.0
888,Nowe mieszkanie 2 pokojowe w sercu Kazimierza,: Kazimierz,2.0,349 000 ,36.2,9641.0,https://www.otodom.pl/oferta/nowe-mieszkanie-2-pokojowe-w-sercu-kazimierza-ID3VdWu.html#2586a7ec49,2019-03-12 08:53:09.622957,"Krakow , : Kazimierz",Kazimierza,Kraków Kazimierza,"Kościół pw. Świętego Kazimierza Królewicza, 4, Reformacka, Stare Miasto, Kraków, województwo małopolskie, 31-012, Polska",ulica,"(50.0648696, 19.936230887154693, 0.0)",50.0648696,19.936230887154693,0.0
889,2 pokojowe  55 5 m2  Gotowe  Wola Duchacka,: Wola Duchacka,2.0,424 000 ,55.5,7640.0,https://www.otodom.pl/oferta/2-pokojowe-55-5-m2-gotowe-wola-duchacka-ID3VdWi.html#2586a7ec49,2019-03-12 08:53:09.622957,"Krakow , : Wola Duchacka",Duchacka,Kraków Duchacka,"Duchacka, Olsza II, Prądnik Czerwony, Kraków, województwo małopolskie, 31-426, Polska",ulica,"(50.0842566, 19.9535619, 0.0)",50.0842566,19.9535619,0.0
890,1 Pokój Z Osobną Kuchnią W Centrum Nowej Huty!,: Nowa Huta,1.0,229 000 ,29.5,7763.0,https://www.otodom.pl/oferta/1-pokoj-z-osobna-kuchnia-w-centrum-nowej-huty-ID3VdS0.html#2586a7ec49,2019-03-12 08:53:09.622957,"Krakow , : Nowa Huta",Nowe,Kraków Nowe,"Kraków, województwo małopolskie, Polska",ulica,"(50.0469432, 19.997153435836697, 0.0)",50.0469432,19.997153435836697,0.0
893,Mistrzejowice 3 pokojowe  loggia  jasna kuchnia,: Mistrzejowice,3.0,335 000 ,60.0,5583.0,https://www.otodom.pl/oferta/mistrzejowice-3-pokojowe-loggia-jasna-kuchnia-ID3VdJG.html#2586a7ec49,2019-03-12 08:53:09.622957,"Krakow , : Mistrzejowice",Mistrzejowicka,Kraków Mistrzejowicka,"Mistrzejowicka, Mistrzejowice, Kraków, województwo małopolskie, 31-638, Polska",ulica,"(50.094553, 20.0276976, 0.0)",50.094553,20.0276976,0.0
895,3   pokojowe  przestronne mieszkanie (Kapelanka),: Dębniki,3.0,550 000 ,63.0,8730.0,https://www.otodom.pl/oferta/3-pokojowe-przestronne-mieszkanie-kapelanka-ID3ViPq.html#89e33f6554,2019-03-13 08:59:53.986234,"Krakow , : Dębniki",Kapelanka,Kraków Kapelanka,"Kapelanka, Osiedle Podwawelskie, Dębniki, Kraków, województwo małopolskie, 30-346, Polska",ulica,"(50.0434871, 19.9227043, 0.0)",50.0434871,19.9227043,0.0
899,Siewna ok   3 pokoje  kuchnia  ogródek po remoncie,: Prądnik Biały,3.0,475 000 ,64.3,7387.0,https://www.otodom.pl/oferta/siewna-ok-3-pokoje-kuchnia-ogrodek-po-remoncie-ID3VkPC.html#89e33f6554,2019-03-13 08:59:53.986234,"Krakow , : Prądnik Biały",Siewna,Kraków Siewna,"Siewna, Prądnik Biały, Kraków, województwo małopolskie, 31-210, Polska",ulica,"(50.0962815, 19.947105, 0.0)",50.0962815,19.947105,0.0
905,Mieszkanie 46m2  ca Borkowska! Ciche z balkonem!,: Łagiewniki-Borek Fałęcki,2.0,325 000 ,46.0,7065.0,https://www.otodom.pl/oferta/mieszkanie-46m2-ulica-borkowska-ciche-z-balkonem-ID3VkF6.html#89e33f6554,2019-03-13 08:59:53.986234,"Krakow , : Łagiewniki-Borek Fałęcki",Borkowska,Kraków Borkowska,"Borkowska, Kliny Zacisze, Swoszowice, Kraków, województwo małopolskie, 32, Polska",ulica,"(50.0041101, 19.9058179, 0.0)",50.0041101,19.9058179,0.0
914,Nowoczesne jasne zadbane garaż Prądnik Czerwony,: Prądnik Czerwony,4.0,598 000 ,70.0,8543.0,https://www.otodom.pl/oferta/nowoczesne-jasne-zadbane-garaz-pradnik-czerwony-ID3VkxV.html#89e33f6554,2019-03-13 08:59:53.986234,"Krakow , : Prądnik Czerwony",Czerwona,Kraków Czerwona,"Czerwona, Olsza II, Prądnik Czerwony, Kraków, województwo małopolskie, 31-424, Polska",ulica,"(50.0849372, 19.9554073, 0.0)",50.0849372,19.9554073,0.0
919,108m   Kazimierza Wielkiego  5/5. Niegłupie.,: Krowodrza,5.0,698 000 ,107.9,6469.0,https://www.otodom.pl/oferta/108m-ul-kazimierza-wielkiego-5-5-nieglupie-ID3Vkne.html#89e33f6554,2019-03-13 08:59:53.986234,"Krakow , : Krowodrza",Kazimierza,Kraków Kazimierza,"Kościół pw. Świętego Kazimierza Królewicza, 4, Reformacka, Stare Miasto, Kraków, województwo małopolskie, 31-012, Polska",ulica,"(50.0648696, 19.936230887154693, 0.0)",50.0648696,19.936230887154693,0.0
926,Okazja   Halszki 63 m2 trzypokojowe  logia,: Wola Duchacka,3.0,310 000 ,63.0,4921.0,https://www.otodom.pl/oferta/okazja-ul-halszki-63-m2-trzypokojowe-logia-ID3VipG.html#3f7ebb237a,2019-03-13 08:59:54.767614,"Krakow , : Wola Duchacka",Halszki,Kraków Halszki,"Halszki, Kurdwanów, Podgórze Duchackie, Kraków, województwo małopolskie, Polska",ulica,"(50.005496449999995, 19.94892275, 0.0)",50.005496449999995,19.94892275,0.0
927,Chopina/ Szymanowskiego  90m2  4pok  II piętro !!!,: Stare Miasto,4.0,1 060 000 ,90.1,11765.0,https://www.otodom.pl/oferta/chopina-szymanowskiego-90m2-4pok-ii-pietro-ID3VgMY.html#3f7ebb237a,2019-03-13 08:59:54.767614,"Krakow , : Stare Miasto",Chopina,Kraków Chopina,"Chopina, Czarnowiejska, Czarna Wieś, Krowodrza, Kraków, województwo małopolskie, 30-069, Polska",ulica,"(50.0675086, 19.9172663, 0.0)",50.0675086,19.9172663,0.0
932,Świetna gotowa inwestycja/ Rondo Grzegórzeckie,: Grzegórzki,2.0,410 000 ,46.7,8779.0,https://www.otodom.pl/oferta/swietna-gotowa-inwestycja-rondo-grzegorzeckie-ID3Vkbm.html#3f7ebb237a,2019-03-13 08:59:54.767614,"Krakow , : Grzegórzki",Grzegórzeckie,Kraków Grzegórzeckie,"Rondo Grzegórzeckie, Grzegórzecka, Wesoła, Grzegórzki, Kraków, województwo małopolskie, 31-539, Polska",ulica,"(50.05760175, 19.957833465730346, 0.0)",50.05760175,19.957833465730346,0.0
933,2 pok. mieszkanie 50m2 Komuny Paryskiej,: Kobierzyn,2.0,379 000 ,50.0,7580.0,https://www.otodom.pl/oferta/2-pok-mieszkanie-50m2-komuny-paryskiej-ID3Vk5V.html#3f7ebb237a,2019-03-13 08:59:54.767614,"Krakow , : Kobierzyn",Paryskiej,Kraków Paryskiej,"Komuny Paryskiej, Kobierzyn, Swoszowice, Kraków, województwo małopolskie, 30-389, Polska",ulica,"(49.9989124, 19.8947491, 0.0)",49.9989124,19.8947491,0.0
938,Ruczaj  3 pokojowe   nowe  taras,: Ruczaj,3.0,497 000 ,66.0,7530.0,https://www.otodom.pl/oferta/ruczaj-3-pokojowe-nowe-taras-ID3VjIE.html#3f7ebb237a,2019-03-13 08:59:54.767614,"Krakow , : Ruczaj",Ruczaj,Kraków Ruczaj,"Ruczaj, Osiedle Ruczaj-Zaborze, Łagiewniki-Borek Fałęcki, Kraków, województwo małopolskie, 30-410, Polska",ulica,"(50.0250823, 19.9239263, 0.0)",50.0250823,19.9239263,0.0
945,Mistrzejowice Ok ckiego nowe urządzone  balkon,: Mistrzejowice,2.0,349 000 ,47.5,7347.0,https://www.otodom.pl/oferta/mistrzejowice-okulickiego-nowe-urzadzone-balkon-ID3VjEg.html#3f7ebb237a,2019-03-13 08:59:54.767614,"Krakow , : Mistrzejowice",Mistrzejowicka,Kraków Mistrzejowicka,"Mistrzejowicka, Mistrzejowice, Kraków, województwo małopolskie, 31-638, Polska",ulica,"(50.094553, 20.0276976, 0.0)",50.094553,20.0276976,0.0
946,Prusa   64m2   2 pokoje  jasna kuchnia  balkon.,: Salwator,2.0,595 000 ,64.0,9297.0,https://www.otodom.pl/oferta/prusa-64m2-2-pokoje-jasna-kuchnia-balkon-ID3VjCY.html#3f7ebb237a,2019-03-13 08:59:54.767614,"Krakow , : Salwator",Prusa,Kraków Prusa,"Bolesława Prusa, Półwsie Zwierzynieckie, Zwierzyniec, Kraków, województwo małopolskie, 30-109, Polska",ulica,"(50.0555047, 19.9177456, 0.0)",50.0555047,19.9177456,0.0
949,1 pokojowe mieszkanie 35m2 Mistrzejowice Nowe,: Mistrzejowice Nowe,1.0,267 000 ,35.0,7629.0,https://www.otodom.pl/oferta/1-pokojowe-mieszkanie-35m2-mistrzejowice-nowe-ID3VjyU.html#3f7ebb237a,2019-03-13 08:59:54.767614,"Krakow , : Mistrzejowice Nowe",Mistrzejowicka,Kraków Mistrzejowicka,"Mistrzejowicka, Mistrzejowice, Kraków, województwo małopolskie, 31-638, Polska",ulica,"(50.094553, 20.0276976, 0.0)",50.094553,20.0276976,0.0
950,Mieszkanie 3 pok. 63m2  Głowackiego,: Bronowice Małe,3.0,567 000 ,63.0,9000.0,https://www.otodom.pl/oferta/mieszkanie-3-pok-63m2-ul-glowackiego-ID3VjyY.html#3f7ebb237a,2019-03-13 08:59:54.767614,"Krakow , : Bronowice Małe",Głowackiego,Kraków Głowackiego,"Głowackiego, Bronowicka, Łobzów, Krowodrza, Kraków, województwo małopolskie, 30-084, Polska",ulica,"(50.0758889, 19.9058459, 0.0)",50.0758889,19.9058459,0.0
954,Bezpośrednio  Litewska  2pok  32 m2  balkon  winda,: Krowodrza,2.0,349 000 ,32.14,10859.0,https://www.otodom.pl/oferta/bezposrednio-litewska-2pok-32-m2-balkon-winda-ID3ViIE.html#85fbb29208,2019-03-13 08:59:55.830329,"Krakow , : Krowodrza",Litewska,Kraków Litewska,"Litewska, Nowa Wieś, Krowodrza, Kraków, województwo małopolskie, 30-022, Polska",ulica,"(50.0776671, 19.9225148, 0.0)",50.0776671,19.9225148,0.0
958,3 pokojowe mieszkanie 68m2  Jerzego Zawieyskiego,: Mistrzejowice,3.0,390 000 ,68.4,5702.0,https://www.otodom.pl/oferta/3-pokojowe-mieszkanie-68m2-ul-jerzego-zawieyskiego-ID3VjyM.html#85fbb29208,2019-03-13 08:59:55.830329,"Krakow , : Mistrzejowice",Zawieyskiego,Kraków Zawieyskiego,"Jerzego Zawieyskiego, Osiedle Srebrnych Orłów, Mistrzejowice, Kraków, województwo małopolskie, 31-619, Polska",ulica,"(50.0960196, 19.9925894, 0.0)",50.0960196,19.9925894,0.0
961,Studio z 15m balkonem   Radzikowskiego,: Bronowice,1.0,240 000 ,25.0,9600.0,https://www.otodom.pl/oferta/studio-z-15m-balkonem-ul-radzikowskiego-ID3Vjuv.html#85fbb29208,2019-03-13 08:59:55.830329,"Krakow , : Bronowice",Idzikowskiego,Kraków Idzikowskiego,"Ludwika Idzikowskiego, Rakowice, Grzegórzki, Kraków, województwo małopolskie, 31-519, Polska",ulica,"(50.0768625, 19.9600088, 0.0)",50.0768625,19.9600088,0.0
971,Ruczaj/ Europejskie 65m2 w bloku z cegły  garaż.,: Zaborze,3.0,470 000 ,65.0,7231.0,https://www.otodom.pl/oferta/ruczaj-os-europejskie-65m2-w-bloku-z-cegly-garaz-ID3Vj6Q.html#85fbb29208,2019-03-13 08:59:55.830329,"Krakow , : Zaborze",Ruczaj,Kraków Ruczaj,"Ruczaj, Osiedle Ruczaj-Zaborze, Łagiewniki-Borek Fałęcki, Kraków, województwo małopolskie, 30-410, Polska",ulica,"(50.0250823, 19.9239263, 0.0)",50.0250823,19.9239263,0.0
974,Mistrzejowice 3 Pok. 56M2  Ładny Rozkład.,: Mistrzejowice,3.0,309 000 ,57.34,5389.0,https://www.otodom.pl/oferta/mistrzejowice-3-pok-56m2-ladny-rozklad-ID3Vj6A.html#85fbb29208,2019-03-13 08:59:55.830329,"Krakow , : Mistrzejowice",Mistrzejowicka,Kraków Mistrzejowicka,"Mistrzejowicka, Mistrzejowice, Kraków, województwo małopolskie, 31-638, Polska",ulica,"(50.094553, 20.0276976, 0.0)",50.094553,20.0276976,0.0
975,Śródmieście/Ugorek 2 Pokoje Loggia Jasna Kuch.,: Wieczysta,2.0,325 000 ,35.78,9083.0,https://www.otodom.pl/oferta/srodmiescie-ugorek-2-pokoje-loggia-jasna-kuch-ID3Vj6E.html#85fbb29208,2019-03-13 08:59:55.830329,"Krakow , : Wieczysta",Jasna,Kraków Jasna,"Jasna, Prądnik Biały, Kraków, województwo małopolskie, 31-225, Polska",ulica,"(50.0963847, 19.9306183, 0.0)",50.0963847,19.9306183,0.0
993,2 Pokoje 39 m2   Jerzmanowskiego  po generalnym,: Bieżanów,2.0,315 000 ,39.0,8077.0,https://www.otodom.pl/oferta/2-pokoje-39-m2-ul-jerzmanowskiego-po-generalnym-ID3ViSE.html#d245b9f81f,2019-03-13 08:59:56.674201,"Krakow , : Bieżanów",Jerzmanowskiego,Kraków Jerzmanowskiego,"Jerzmanowskiego, Wielicka, Rżąka, Bieżanów-Prokocim, Kraków, województwo małopolskie, 30-695, Polska",ulica,"(50.0096842, 20.0092457, 0.0)",50.0096842,20.0092457,0.0
995,Mieszkanie na parterze z ogrodem o pow 70m2,: Azory,2.0,425 000 ,48.0,8854.0,https://www.otodom.pl/oferta/mieszkanie-na-parterze-z-ogrodem-o-pow-70m2-ID3ViRG.html#d245b9f81f,2019-03-13 08:59:56.674201,"Krakow , : Azory",Ogrodem,Kraków Ogrodem,"Za Ogrodem, Wadów, Wzgórza Krzesławickie, Kraków, województwo małopolskie, 31-990, Polska",ulica,"(50.0986422, 20.1175645, 0.0)",50.0986422,20.1175645,0.0
999,2 Pokoje 60m2  Kordiana,: Kurdwanów,2.0,440 000 ,60.0,7333.0,https://www.otodom.pl/oferta/2-pokoje-60m2-ul-kordiana-ID3ViQM.html#d245b9f81f,2019-03-13 08:59:56.674201,"Krakow , : Kurdwanów",Kordiana,Kraków Kordiana,"Kordiana, Kurdwanów, Podgórze Duchackie, Kraków, województwo małopolskie, 30-653, Polska",ulica,"(50.0102046, 19.9634521, 0.0)",50.0102046,19.9634521,0.0
1000,1 pokojowy apartament (Pomorska)  idealna inwest.,: Krowodrza,1.0,405 000 ,28.0,14464.0,https://www.otodom.pl/oferta/1-pokojowy-apartament-pomorska-idealna-inwest-ID3ViPm.html#d245b9f81f,2019-03-13 08:59:56.674201,"Krakow , : Krowodrza",Pomorska,Kraków Pomorska,"Pomorska, Nowa Wieś, Krowodrza, Kraków, województwo małopolskie, 30-039, Polska",ulica,"(50.0705355, 19.9250508, 0.0)",50.0705355,19.9250508,0.0
1002,4 pokojowe mieszkanie  70 m2  Wola Duchacka,: Wola Duchacka,4.0,449 000 ,70.0,6414.0,https://www.otodom.pl/oferta/4-pokojowe-mieszkanie-70-m2-wola-duchacka-ID3ViKc.html#d245b9f81f,2019-03-13 08:59:56.674201,"Krakow , : Wola Duchacka",Duchacka,Kraków Duchacka,"Duchacka, Olsza II, Prądnik Czerwony, Kraków, województwo małopolskie, 31-426, Polska",ulica,"(50.0842566, 19.9535619, 0.0)",50.0842566,19.9535619,0.0
1003,Czteropokojowe mieszkanie w domu w Bronowicach Wie,: Bronowice Wielkie,4.0,877 000 ,125.46,6990.0,https://www.otodom.pl/oferta/czteropokojowe-mieszkanie-w-domu-w-bronowicach-wie-ID3ViK0.html#d245b9f81f,2019-03-13 08:59:56.674201,"Krakow , : Bronowice Wielkie",Bronowicka,Kraków Bronowicka,"Bronowicka, Bronowice, Kraków, województwo małopolskie, 30-091, Polska",ulica,"(50.079245, 19.8970729, 0.0)",50.079245,19.8970729,0.0
1004,Czteropokojowe mieszkanie w domu w Bronowicach,: Bronowice Wielkie,4.0,720 100 ,96.14,7490.0,https://www.otodom.pl/oferta/czteropokojowe-mieszkanie-w-domu-w-bronowicach-ID3ViJC.html#d245b9f81f,2019-03-13 08:59:56.674201,"Krakow , : Bronowice Wielkie",Bronowicka,Kraków Bronowicka,"Bronowicka, Bronowice, Kraków, województwo małopolskie, 30-091, Polska",ulica,"(50.079245, 19.8970729, 0.0)",50.079245,19.8970729,0.0
1020,0% prowizji   4 pokoje  ogródek  parking !,: Bronowice,4.0,325 000 ,70.0,4643.0,https://www.otodom.pl/oferta/0-prowizji-4-pokoje-ogrodek-parking-ID3ViAs.html#2586a7ec49,2019-03-13 09:00:02.534414,"Krakow , : Bronowice",parkingu,Kraków parkingu,"zjazd do parkingu, Czyżyny, Kraków, województwo małopolskie, 31-982, Polska",ulica,"(50.0703024, 20.0169552, 0.0)",50.0703024,20.0169552,0.0
1022,4 pok. mieszkanie 62 mkw  Mistrzejowice,: Mistrzejowice,4.0,413 424 ,62.64,6600.0,https://www.otodom.pl/oferta/4-pok-mieszkanie-62-mkw-mistrzejowice-ID3VixC.html#2586a7ec49,2019-03-13 09:00:02.534414,"Krakow , : Mistrzejowice",Mistrzejowicka,Kraków Mistrzejowicka,"Mistrzejowicka, Mistrzejowice, Kraków, województwo małopolskie, 31-638, Polska",ulica,"(50.094553, 20.0276976, 0.0)",50.094553,20.0276976,0.0
1025,Piękne mieszkanie 4 pokoje Stare Miasto Kazimierz,: Kazimierz,4.0,799 000 ,105.0,7610.0,https://www.otodom.pl/oferta/piekne-mieszkanie-4-pokoje-stare-miasto-kazimierz-ID3VirO.html#2586a7ec49,2019-03-13 09:00:02.534414,"Krakow , : Kazimierz",Kazimierza,Kraków Kazimierza,"Kościół pw. Świętego Kazimierza Królewicza, 4, Reformacka, Stare Miasto, Kraków, województwo małopolskie, 31-012, Polska",ulica,"(50.0648696, 19.936230887154693, 0.0)",50.0648696,19.936230887154693,0.0
1030,Apartament pięciopokojowy na Bronowicach ! 153 m2,: Bronowice,5.0,1 295 000 ,153.0,8464.0,https://www.otodom.pl/oferta/apartament-pieciopokojowy-na-bronowicach-153-m2-ID3Vig8.html#2586a7ec49,2019-03-13 09:00:02.534414,"Krakow , : Bronowice",Bronowicka,Kraków Bronowicka,"Bronowicka, Bronowice, Kraków, województwo małopolskie, 30-091, Polska",ulica,"(50.079245, 19.8970729, 0.0)",50.079245,19.8970729,0.0
1032,1 pok./29 m2/do wejścia/Płaszów/ Saska,: Płaszów,1.0,229 000 ,29.3,7816.0,https://www.otodom.pl/oferta/1-pok-29-m2-do-wejscia-plaszow-ul-saska-ID3Vi96.html#2586a7ec49,2019-03-13 09:00:02.534414,"Krakow , : Płaszów",Saska,Kraków Saska,"Saska, Płaszów, Podgórze, Kraków, województwo małopolskie, 30-715, Polska",ulica,"(50.0420528, 19.983341, 0.0)",50.0420528,19.983341,0.0
1034,3 pok. mieszkanie 47 mkw  Mistrzejowice,: Mistrzejowice,3.0,329 268 ,47.72,6900.0,https://www.otodom.pl/oferta/3-pok-mieszkanie-47-mkw-mistrzejowice-ID3Vi1S.html#2586a7ec49,2019-03-13 09:00:02.534414,"Krakow , : Mistrzejowice",Mistrzejowicka,Kraków Mistrzejowicka,"Mistrzejowicka, Mistrzejowice, Kraków, województwo małopolskie, 31-638, Polska",ulica,"(50.094553, 20.0276976, 0.0)",50.094553,20.0276976,0.0
1037,Mistrzejowice   Oświecenia  2 pok  jasna kuchnia,: Nowa Huta,2.0,315 000 ,56.0,5625.0,https://www.otodom.pl/oferta/mistrzejowice-os-oswiecenia-2-pok-jasna-kuchnia-ID3VhTS.html#2586a7ec49,2019-03-13 09:00:02.534414,"Krakow , : Nowa Huta",Mistrzejowicka,Kraków Mistrzejowicka,"Mistrzejowicka, Mistrzejowice, Kraków, województwo małopolskie, 31-638, Polska",ulica,"(50.094553, 20.0276976, 0.0)",50.094553,20.0276976,0.0
1038,Mistrzejowice   otego Wieku  3 pok  balkon,: Nowa Huta,3.0,299 000 ,48.0,6229.0,https://www.otodom.pl/oferta/mistrzejowice-os-zlotego-wieku-3-pok-balkon-ID3VhSo.html#2586a7ec49,2019-03-13 09:00:02.534414,"Krakow , : Nowa Huta",Mistrzejowicka,Kraków Mistrzejowicka,"Mistrzejowicka, Mistrzejowice, Kraków, województwo małopolskie, 31-638, Polska",ulica,"(50.094553, 20.0276976, 0.0)",50.094553,20.0276976,0.0
1049,1 pokojowe z balkonem   Bieżanów Prokocim !,: Bieżanów-Prokocim,2.0,171 500 ,27.0,6352.0,https://www.otodom.pl/oferta/1-pokojowe-z-balkonem-biezanow-prokocim-ID3VhLS.html#d5a755bd0e,2019-03-13 09:00:03.612675,"Krakow , : Bieżanów-Prokocim",Prokocimia,Kraków Prokocimia,"Prokocim, Bieżanów-Prokocim, Kraków, województwo małopolskie, Polska",ulica,"(50.0226748, 19.9921741, 0.0)",50.0226748,19.9921741,0.0
1057,3 pok w zielonej w okolicy Ruczaju ! Okazja,: Ruczaj,3.0,446 800 ,77.0,5803.0,https://www.otodom.pl/oferta/3-pok-w-zielonej-w-okolicy-ruczaju-okazja-ID3VhD6.html#d5a755bd0e,2019-03-13 09:00:03.612675,"Krakow , : Ruczaj",Ruczaj,Kraków Ruczaj,"Ruczaj, Osiedle Ruczaj-Zaborze, Łagiewniki-Borek Fałęcki, Kraków, województwo małopolskie, 30-410, Polska",ulica,"(50.0250823, 19.9239263, 0.0)",50.0250823,19.9239263,0.0
1060,Kliny   Barta   apartament 107 m2  2017 rok,: Dębniki,4.0,760 000 ,107.0,7103.0,https://www.otodom.pl/oferta/kliny-ul-barta-apartament-107-m2-2017-rok-ID3Vhuc.html#d5a755bd0e,2019-03-13 09:00:03.612675,"Krakow , : Dębniki",Bartla,Kraków Bartla,"Wojciecha Marii Bartla, Osiedle Za Fortem, Swoszowice, Kraków, województwo małopolskie, 30-389, Polska",ulica,"(49.9983802, 19.8989084, 0.0)",49.9983802,19.8989084,0.0
1062,Mistrzejowice    Piastów   4 pok do remontu,: Mistrzejowice,4.0,349 000 ,66.0,5288.0,https://www.otodom.pl/oferta/mistrzejowice-os-piastow-4-pok-do-remontu-ID3Vhpy.html#d5a755bd0e,2019-03-13 09:00:03.612675,"Krakow , : Mistrzejowice",Mistrzejowicka,Kraków Mistrzejowicka,"Mistrzejowicka, Mistrzejowice, Kraków, województwo małopolskie, 31-638, Polska",ulica,"(50.094553, 20.0276976, 0.0)",50.094553,20.0276976,0.0
1063,Nowa Inwestycja W Sercu Starego Podgórza!,: Podgórze,3.0,1 259 680 ,78.73,16000.0,https://www.otodom.pl/oferta/nowa-inwestycja-w-sercu-starego-podgorza-ID3VhoI.html#d5a755bd0e,2019-03-13 09:00:03.612675,"Krakow , : Podgórze",Sarego,Kraków Sarego,"Józefa Sarego, Wesoła, Stare Miasto, Kraków, województwo małopolskie, 31-047, Polska",ulica,"(50.0567673, 19.9425266, 0.0)",50.0567673,19.9425266,0.0
1065,  Jagiellońskie 2 pokoje  jasna kuchnia,: Nowa Huta,2.0,319 000 ,44.0,7250.0,https://www.otodom.pl/oferta/os-jagiellonskie-2-pokoje-jasna-kuchnia-ID3Vhny.html#d5a755bd0e,2019-03-13 09:00:03.612675,"Krakow , : Nowa Huta",Jagiellońskie,Kraków Jagiellońskie,"Uniwersytet Jagielloński, Gołębia, Stare Miasto, Kraków, województwo małopolskie, 31-007, Polska",ulica,"(50.06165525, 19.93365859224709, 0.0)",50.06165525,19.93365859224709,0.0
1066,  Albertyńskie 2 pokoje jasna kuchnia balkon,: Nowa Huta,2.0,258 000 ,42.0,6143.0,https://www.otodom.pl/oferta/os-albertynskie-2-pokoje-jasna-kuchnia-balkon-ID3VhmA.html#d5a755bd0e,2019-03-13 09:00:03.612675,"Krakow , : Nowa Huta",Albertyńskie,Kraków Albertyńskie,"Osiedle Albertyńskie, Bieńczyce, Kraków, województwo małopolskie, Polska",ulica,"(50.08162075, 20.0178184941501, 0.0)",50.08162075,20.0178184941501,0.0
1069,Bogusławskiego   do remontu   10 min pieszo Rynek,: Stare Miasto,2.0,649 000 ,77.0,8429.0,https://www.otodom.pl/oferta/boguslawskiego-do-remontu-10-min-pieszo-rynek-ID3Vhby.html#d5a755bd0e,2019-03-13 09:00:03.612675,"Krakow , : Stare Miasto",Bogusławskiego,Kraków Bogusławskiego,"Pomnik Wojciecha Bogusławskiego, Wacława Sieroszewskiego, Mogiła, Nowa Huta, Kraków, województwo małopolskie, 31-908, Polska",ulica,"(50.0662222, 20.0509596, 0.0)",50.0662222,20.0509596,0.0
1082,Luksusowy Apartament z widokiem na Las Borkowski,: Borek Fałęcki,3.0,1 032 300 ,115.0,8977.0,https://www.otodom.pl/oferta/luksusowy-apartament-z-widokiem-na-las-borkowski-ID3VgZu.html#0c43dd2d44,2019-03-13 09:00:04.394033,"Krakow , : Borek Fałęcki",Borkowska,Kraków Borkowska,"Borkowska, Kliny Zacisze, Swoszowice, Kraków, województwo małopolskie, 32, Polska",ulica,"(50.0041101, 19.9058179, 0.0)",50.0041101,19.9058179,0.0
1083,Luksusowy Apartament z widokiem na Las Borkowski,: Borek Fałęcki,5.0,1 406 950 ,148.0,9506.0,https://www.otodom.pl/oferta/luksusowy-apartament-z-widokiem-na-las-borkowski-ID3VgZm.html#0c43dd2d44,2019-03-13 09:00:04.394033,"Krakow , : Borek Fałęcki",Borkowska,Kraków Borkowska,"Borkowska, Kliny Zacisze, Swoszowice, Kraków, województwo małopolskie, 32, Polska",ulica,"(50.0041101, 19.9058179, 0.0)",50.0041101,19.9058179,0.0
1084,Luksusowy Apartament z widokiem na Las Borkowski,: Borek Fałęcki,3.0,736 200 ,82.0,8978.0,https://www.otodom.pl/oferta/luksusowy-apartament-z-widokiem-na-las-borkowski-ID3VgYY.html#0c43dd2d44,2019-03-13 09:00:04.394033,"Krakow , : Borek Fałęcki",Borkowska,Kraków Borkowska,"Borkowska, Kliny Zacisze, Swoszowice, Kraków, województwo małopolskie, 32, Polska",ulica,"(50.0041101, 19.9058179, 0.0)",50.0041101,19.9058179,0.0
1091,Os. Ogrodowe 2 pokoje z możliwości zrobienia 3 pok,: Nowa Huta,2.0,305 000 ,54.36,5611.0,https://www.otodom.pl/oferta/os-ogrodowe-2-pokoje-z-mozliwosci-zrobienia-3-pok-ID3VgJV.html#0c43dd2d44,2019-03-13 09:00:04.394033,"Krakow , : Nowa Huta",Ogrodowa,Kraków Ogrodowa,"Ogrodowa, Kleparz, Stare Miasto, Kraków, województwo małopolskie, 31-154, Polska",ulica,"(50.0685353, 19.944818, 0.0)",50.0685353,19.944818,0.0
1108,Nowy Prokocim 3 pokojowe 300 000,: Bieżanów-Prokocim,3.0,300 000 ,48.0,6250.0,https://www.otodom.pl/oferta/nowy-prokocim-3-pokojowe-300-000zl-ID3VgjV.html#afa032636e,2019-03-13 09:00:05.191013,"Krakow , : Bieżanów-Prokocim",Prokocimia,Kraków Prokocimia,"Prokocim, Bieżanów-Prokocim, Kraków, województwo małopolskie, Polska",ulica,"(50.0226748, 19.9921741, 0.0)",50.0226748,19.9921741,0.0
